%time,field.header.seq,field.header.stamp,field.header.frame_id,field.twist.linear.x,field.twist.linear.y,field.twist.linear.z,field.twist.angular.x,field.twist.angular.y,field.twist.angular.z
1473349650404391328,79,1473349650404154622,/rosControlledBubbleRob,-0.000300168874674,0.0,0.0,0.0,0.0,-0.000772489991505
1473349650454970620,80,1473349650454675250,/rosControlledBubbleRob,-0.000347199063981,0.0,0.0,0.0,0.0,-0.000398350966861
1473349650513270506,81,1473349650513040783,/rosControlledBubbleRob,-0.000361983838957,0.0,0.0,0.0,0.0,-0.000133582783747
1473349650556292630,82,1473349650556015729,/rosControlledBubbleRob,-0.000416894094087,0.0,0.0,0.0,0.0,9.71308109001e-05
1473349650593267646,83,1473349650592808040,/rosControlledBubbleRob,-0.000415717746364,0.0,0.0,0.0,0.0,0.000101717087091
1473349650644311417,84,1473349650644099023,/rosControlledBubbleRob,-0.000438544899225,0.0,0.0,0.0,0.0,-8.7928470748e-05
1473349650700973034,85,1473349650700282687,/rosControlledBubbleRob,-0.000442206481239,0.0,0.0,0.0,0.0,-7.09086161805e-05
1473349650740401659,86,1473349650739787524,/rosControlledBubbleRob,-0.000442842312623,0.0,0.0,0.0,0.0,7.64925571275e-05
1473349650917650030,87,1473349650917314830,/rosControlledBubbleRob,-0.000414018752053,0.0,0.0,0.0,0.0,0.000755246728659
1473349650956639636,88,1473349650956419675,/rosControlledBubbleRob,-0.000429098348832,0.0,0.0,0.0,0.0,0.000318671838613
1473349650999147607,89,1473349650998806369,/rosControlledBubbleRob,-0.000414093199652,0.0,0.0,0.0,0.0,0.000356746866601
1473349651040473557,90,1473349651040239336,/rosControlledBubbleRob,-0.000387738487916,0.0,0.0,0.0,0.0,0.000344015483279
1473349651075914395,91,1473349651075627496,/rosControlledBubbleRob,-0.000391339010093,0.0,0.0,0.0,0.0,0.000281743385131
1473349651112884218,92,1473349651112578945,/rosControlledBubbleRob,-0.000392073096009,0.0,0.0,0.0,0.0,0.000415296381107
1473349651149051425,93,1473349651148799784,/rosControlledBubbleRob,-0.000420494616264,0.0,0.0,0.0,0.0,0.000559272710234
1473349651202584177,94,1473349651202340600,/rosControlledBubbleRob,-0.000453293963801,0.0,0.0,0.0,0.0,0.000681687612087
1473349651238158232,95,1473349651237899720,/rosControlledBubbleRob,-0.000524470582604,0.0,0.0,0.0,0.0,-0.000103131686046
1473349651284856368,96,1473349651284669237,/rosControlledBubbleRob,-0.000544361362699,0.0,0.0,0.0,0.0,6.98364965501e-05
1473349651335014091,97,1473349651334759322,/rosControlledBubbleRob,-0.000578156847041,0.0,0.0,0.0,0.0,0.000143097815453
1473349651373326797,98,1473349651372773337,/rosControlledBubbleRob,-0.000518807733897,0.0,0.0,0.0,0.0,-2.04000002668e-06
1473349651411041342,99,1473349651410842666,/rosControlledBubbleRob,-0.000579470186494,0.0,0.0,0.0,0.0,0.000358652876457
1473349651447644914,100,1473349651447390266,/rosControlledBubbleRob,-0.000525879207999,0.0,0.0,0.0,0.0,0.000499219284393
1473349651482741493,101,1473349651482554858,/rosControlledBubbleRob,-0.000469146383693,0.0,0.0,0.0,0.0,0.00084983126726
1473349651521092777,102,1473349651520948465,/rosControlledBubbleRob,-0.000508714932948,0.0,0.0,0.0,0.0,0.000652576680295
1473349651556409262,103,1473349651556038475,/rosControlledBubbleRob,-0.0262307133526,0.0,0.0,0.0,0.0,0.0194433145225
1473349651593836696,104,1473349651593670956,/rosControlledBubbleRob,-0.0537716038525,0.0,0.0,0.0,0.0,0.00304698594846
1473349651630541539,105,1473349651630289786,/rosControlledBubbleRob,-0.111994817853,0.0,0.0,0.0,0.0,-0.108848214149
1473349651665987071,106,1473349651665756235,/rosControlledBubbleRob,-0.174458473921,0.0,0.0,0.0,0.0,-0.0234530325979
1473349651717510031,107,1473349651717323382,/rosControlledBubbleRob,-0.246515139937,0.0,0.0,0.0,0.0,-0.0304257236421
1473349651768688979,108,1473349651768465994,/rosControlledBubbleRob,-0.322010427713,0.0,0.0,0.0,0.0,-0.0398105569184
1473349651805862586,109,1473349651805494802,/rosControlledBubbleRob,-0.392145723104,0.0,0.0,0.0,0.0,-0.0321663655341
1473349651841055963,110,1473349651840846040,/rosControlledBubbleRob,-0.463016778231,0.0,0.0,0.0,0.0,-0.0368793904781
1473349651877065220,111,1473349651876590970,/rosControlledBubbleRob,-0.532012760639,0.0,0.0,0.0,0.0,-0.0394672416151
1473349651913424098,112,1473349651913167812,/rosControlledBubbleRob,-0.606105089188,0.0,0.0,0.0,0.0,0.00449431361631
1473349651955563106,113,1473349651955301857,/rosControlledBubbleRob,-0.673943161964,0.0,0.0,0.0,0.0,0.0140728438273
1473349651990640255,114,1473349651990270380,/rosControlledBubbleRob,-0.73964035511,0.0,0.0,0.0,0.0,0.0146322511137
1473349652027521631,115,1473349652027195866,/rosControlledBubbleRob,-0.812259793282,0.0,0.0,0.0,0.0,0.0275348201394
1473349652065345309,116,1473349652064976184,/rosControlledBubbleRob,-0.882033705711,0.0,0.0,0.0,0.0,0.0544825941324
1473349652102807893,117,1473349652102504612,/rosControlledBubbleRob,-0.947962224483,0.0,0.0,0.0,0.0,0.0247949659824
1473349652145224487,118,1473349652145004428,/rosControlledBubbleRob,-0.988718926907,0.0,0.0,0.0,0.0,-0.0460123941302
1473349652181507895,119,1473349652181056837,/rosControlledBubbleRob,-1.00032281876,0.0,0.0,0.0,0.0,-0.000273508921964
1473349652218849163,120,1473349652218684346,/rosControlledBubbleRob,-1.00029182434,0.0,0.0,0.0,0.0,0.000716099573765
1473349652256458412,121,1473349652256230234,/rosControlledBubbleRob,-0.999349355698,0.0,0.0,0.0,0.0,0.00298055936582
1473349652291277061,122,1473349652290911505,/rosControlledBubbleRob,-1.00025606155,0.0,0.0,0.0,0.0,0.000298286729958
1473349652333995109,123,1473349652333677441,/rosControlledBubbleRob,-1.00028991699,0.0,0.0,0.0,0.0,0.000147713872138
1473349652368892231,124,1473349652368713660,/rosControlledBubbleRob,-0.999207735062,0.0,0.0,0.0,0.0,-0.011174316518
1473349652407519697,125,1473349652407287892,/rosControlledBubbleRob,-1.00021612644,0.0,0.0,0.0,0.0,0.000175678258529
1473349652443237885,126,1473349652442894388,/rosControlledBubbleRob,-1.00022768974,0.0,0.0,0.0,0.0,0.000591957417782
1473349652479711154,127,1473349652479440061,/rosControlledBubbleRob,-1.00023233891,0.0,0.0,0.0,0.0,0.000565124675632
1473349652520511521,128,1473349652520163916,/rosControlledBubbleRob,-1.00031065941,0.0,0.0,0.0,0.0,3.14487624564e-05
1473349652562458300,129,1473349652562130767,/rosControlledBubbleRob,-1.00014448166,0.0,0.0,0.0,0.0,-2.5254308639e-05
1473349652602992035,130,1473349652602733023,/rosControlledBubbleRob,-1.00016832352,0.0,0.0,0.0,0.0,-6.64712424623e-05
1473349652640327354,131,1473349652640063096,/rosControlledBubbleRob,-0.998796463013,0.0,0.0,0.0,0.0,0.000328544236254
1473349652675750572,132,1473349652675376638,/rosControlledBubbleRob,-1.00015282631,0.0,0.0,0.0,0.0,-8.14808809082e-05
1473349652714273840,133,1473349652714058128,/rosControlledBubbleRob,-1.00025856495,0.0,0.0,0.0,0.0,-0.000116265116958
1473349652754130432,134,1473349652753849249,/rosControlledBubbleRob,-0.99861484766,0.0,0.0,0.0,0.0,-9.24402993405e-05
1473349652790012783,135,1473349652789691881,/rosControlledBubbleRob,-1.00031852722,0.0,0.0,0.0,0.0,0.000470361497719
1473349652839545470,136,1473349652839214327,/rosControlledBubbleRob,-1.00014150143,0.0,0.0,0.0,0.0,0.000620815204456
1473349652893346621,137,1473349652893000527,/rosControlledBubbleRob,-1.00016653538,0.0,0.0,0.0,0.0,0.000146760881762
1473349652949131587,138,1473349652948799403,/rosControlledBubbleRob,-0.999161601067,0.0,0.0,0.0,0.0,0.010700202547
1473349652991597119,139,1473349652991166752,/rosControlledBubbleRob,-1.00017917156,0.0,0.0,0.0,0.0,-0.000379291101126
1473349653027337893,140,1473349653027051486,/rosControlledBubbleRob,-1.00021159649,0.0,0.0,0.0,0.0,-0.000706108054146
1473349653065682176,141,1473349653065371993,/rosControlledBubbleRob,-1.00020635128,0.0,0.0,0.0,0.0,-0.000434147747001
1473349653117590147,142,1473349653117372068,/rosControlledBubbleRob,-1.00019156933,0.0,0.0,0.0,0.0,-0.000383579579648
1473349653172975834,143,1473349653172509497,/rosControlledBubbleRob,-0.944984853268,0.0,0.0,0.0,0.0,-0.157214254141
1473349653225296162,144,1473349653224982490,/rosControlledBubbleRob,-0.87987524271,0.0,0.0,0.0,0.0,-0.140897601843
1473349653263146603,145,1473349653262812359,/rosControlledBubbleRob,-0.776376187801,0.0,0.0,0.0,0.0,-0.121832258999
1473349653302119641,146,1473349653301948647,/rosControlledBubbleRob,-0.692102789879,0.0,0.0,0.0,0.0,-0.0626650229096
1473349653354217408,147,1473349653354028751,/rosControlledBubbleRob,-0.618359386921,0.0,0.0,0.0,0.0,-0.0132346572354
1473349653394862785,148,1473349653394629942,/rosControlledBubbleRob,-0.55050778389,0.0,0.0,0.0,0.0,-0.0293157249689
1473349653431346194,149,1473349653431075226,/rosControlledBubbleRob,-0.489569067955,0.0,0.0,0.0,0.0,-0.0227074343711
1473349653467821178,150,1473349653467419023,/rosControlledBubbleRob,-0.431233674288,0.0,0.0,0.0,0.0,0.194156065583
1473349653505062454,151,1473349653504704641,/rosControlledBubbleRob,-0.345790594816,0.0,0.0,0.0,0.0,0.173015832901
1473349653541314972,152,1473349653540964421,/rosControlledBubbleRob,-0.265352427959,0.0,0.0,0.0,0.0,0.13682307303
1473349653579889261,153,1473349653579665186,/rosControlledBubbleRob,-0.194070383906,0.0,0.0,0.0,0.0,0.122552007437
1473349653615582887,154,1473349653615347553,/rosControlledBubbleRob,-0.139369174838,0.0,0.0,0.0,0.0,0.0337959825993
1473349653651674284,155,1473349653651518655,/rosControlledBubbleRob,-0.0630376040936,0.0,0.0,0.0,0.0,-0.0066175814718
1473349653687705655,156,1473349653687488985,/rosControlledBubbleRob,-0.0105631612241,0.0,0.0,0.0,0.0,0.203511595726
1473349653724486522,157,1473349653724268521,/rosControlledBubbleRob,0.0453351028264,0.0,0.0,0.0,0.0,0.00345650478266
1473349653760655540,158,1473349653760448822,/rosControlledBubbleRob,0.0974804759026,0.0,0.0,0.0,0.0,-0.110038258135
1473349653797818164,159,1473349653797488421,/rosControlledBubbleRob,0.180824935436,0.0,0.0,0.0,0.0,-0.0613527186215
1473349653831178256,160,1473349653830918720,/rosControlledBubbleRob,0.252144426107,0.0,0.0,0.0,0.0,0.0786914676428
1473349653867538577,161,1473349653867281189,/rosControlledBubbleRob,0.321528434753,0.0,0.0,0.0,0.0,0.179323688149
1473349653903819786,162,1473349653903493269,/rosControlledBubbleRob,0.388016700745,0.0,0.0,0.0,0.0,0.313483148813
1473349653951691132,163,1473349653951494062,/rosControlledBubbleRob,0.452578127384,0.0,0.0,0.0,0.0,0.480247348547
1473349654002102070,164,1473349654001869960,/rosControlledBubbleRob,0.508449614048,0.0,0.0,0.0,0.0,0.657770872116
1473349654044875491,165,1473349654044648055,/rosControlledBubbleRob,0.570217132568,0.0,0.0,0.0,0.0,0.885520398617
1473349654079844052,166,1473349654079599197,/rosControlledBubbleRob,0.632330477238,0.0,0.0,0.0,0.0,1.15769147873
1473349654116952668,167,1473349654116723564,/rosControlledBubbleRob,0.697763681412,0.0,0.0,0.0,0.0,1.47600460052
1473349654152832361,168,1473349654152666597,/rosControlledBubbleRob,0.784959673882,0.0,0.0,0.0,0.0,1.68710672855
1473349654191851497,169,1473349654191662914,/rosControlledBubbleRob,0.84578025341,0.0,0.0,0.0,0.0,1.5622907877
1473349654227266168,170,1473349654227030658,/rosControlledBubbleRob,0.852801978588,0.0,0.0,0.0,0.0,1.4761121273
1473349654265217226,171,1473349654264896903,/rosControlledBubbleRob,0.86575949192,0.0,0.0,0.0,0.0,1.34479010105
1473349654302287464,172,1473349654302028718,/rosControlledBubbleRob,0.883729994297,0.0,0.0,0.0,0.0,1.1626906395
1473349654341836547,173,1473349654341552707,/rosControlledBubbleRob,0.887286782265,0.0,0.0,0.0,0.0,1.12367129326
1473349654377257523,174,1473349654376904235,/rosControlledBubbleRob,0.893803060055,0.0,0.0,0.0,0.0,1.10477459431
1473349654415179757,175,1473349654414940349,/rosControlledBubbleRob,0.926487565041,0.0,0.0,0.0,0.0,0.881454706192
1473349654449839716,176,1473349654449623852,/rosControlledBubbleRob,0.957103490829,0.0,0.0,0.0,0.0,0.615317285061
1473349654488394281,177,1473349654488063536,/rosControlledBubbleRob,0.986412763596,0.0,0.0,0.0,0.0,0.289581000805
1473349654531615702,178,1473349654531441156,/rosControlledBubbleRob,0.99906116724,0.0,0.0,0.0,0.0,0.0582464411855
1473349654569057648,179,1473349654568869986,/rosControlledBubbleRob,0.999469339848,0.0,0.0,0.0,0.0,-4.31666230725e-05
1473349654604972592,180,1473349654604743578,/rosControlledBubbleRob,0.999456644058,0.0,0.0,0.0,0.0,-7.88005854702e-05
1473349654643966251,181,1473349654643723014,/rosControlledBubbleRob,0.99942702055,0.0,0.0,0.0,0.0,-0.000218711837078
1473349654678257943,182,1473349654677992185,/rosControlledBubbleRob,1.00049901009,0.0,0.0,0.0,0.0,0.000588933646213
1473349654715342083,183,1473349654714958909,/rosControlledBubbleRob,0.999506235123,0.0,0.0,0.0,0.0,0.000950610265136
1473349654752063809,184,1473349654751773771,/rosControlledBubbleRob,0.999425411224,0.0,0.0,0.0,0.0,0.000793054758105
1473349654789341235,185,1473349654788932839,/rosControlledBubbleRob,1.00066673756,0.0,0.0,0.0,0.0,-0.000275563797913
1473349654826813184,186,1473349654826508930,/rosControlledBubbleRob,0.956797480583,0.0,0.0,0.0,0.0,-0.115357987583
1473349654866802504,187,1473349654866564499,/rosControlledBubbleRob,0.885295689106,0.0,0.0,0.0,0.0,-0.251733899117
1473349654902164422,188,1473349654901886578,/rosControlledBubbleRob,0.817809224129,0.0,0.0,0.0,0.0,-0.257547706366
1473349654946658856,189,1473349654946388069,/rosControlledBubbleRob,0.74889177084,0.0,0.0,0.0,0.0,-0.292099177837
1473349654981993436,190,1473349654981766968,/rosControlledBubbleRob,0.677724421024,0.0,0.0,0.0,0.0,-0.374023556709
1473349655020300648,191,1473349655019984726,/rosControlledBubbleRob,0.594749987125,0.0,0.0,0.0,0.0,-0.571160376072
1473349655063502886,192,1473349655063261531,/rosControlledBubbleRob,0.532881200314,0.0,0.0,0.0,0.0,-0.569396972656
1473349655106980859,193,1473349655106722878,/rosControlledBubbleRob,0.465888619423,0.0,0.0,0.0,0.0,-0.586660087109
1473349655141100936,194,1473349655140794634,/rosControlledBubbleRob,0.375234156847,0.0,0.0,0.0,0.0,-0.622156023979
1473349655184333884,195,1473349655183709548,/rosControlledBubbleRob,0.30172047019,0.0,0.0,0.0,0.0,-0.415262132883
1473349655220664709,196,1473349655220392792,/rosControlledBubbleRob,0.252002686262,0.0,0.0,0.0,0.0,-0.56802213192
1473349655262636618,197,1473349655262339844,/rosControlledBubbleRob,0.16213349998,0.0,0.0,0.0,0.0,-0.50943082571
1473349655304782723,198,1473349655304592460,/rosControlledBubbleRob,0.103594787419,0.0,0.0,0.0,0.0,-0.546082019806
1473349655340495904,199,1473349655340265831,/rosControlledBubbleRob,0.0454161539674,0.0,0.0,0.0,0.0,-0.5671864748
1473349655381305524,200,1473349655381087414,/rosControlledBubbleRob,-0.0201294925064,0.0,0.0,0.0,0.0,-0.599036931992
1473349655419570195,201,1473349655419199944,/rosControlledBubbleRob,-0.0917086154222,0.0,0.0,0.0,0.0,-0.601253032684
1473349655456385405,202,1473349655456068816,/rosControlledBubbleRob,-0.180097386241,0.0,0.0,0.0,0.0,-0.553100526333
1473349655507976931,203,1473349655507746122,/rosControlledBubbleRob,-0.276534020901,0.0,0.0,0.0,0.0,-0.657088875771
1473349655557238736,204,1473349655556922784,/rosControlledBubbleRob,-0.341814398766,0.0,0.0,0.0,0.0,-0.614896893501
1473349655593096634,205,1473349655592757919,/rosControlledBubbleRob,-0.415397584438,0.0,0.0,0.0,0.0,-0.666053056717
1473349655629524325,206,1473349655629240860,/rosControlledBubbleRob,-0.480849444866,0.0,0.0,0.0,0.0,-0.614619076252
1473349655665791410,207,1473349655665479880,/rosControlledBubbleRob,-0.54825848341,0.0,0.0,0.0,0.0,-0.591018438339
1473349655699535480,208,1473349655699240874,/rosControlledBubbleRob,-0.616925239563,0.0,0.0,0.0,0.0,-0.567102909088
1473349655738573803,209,1473349655738112926,/rosControlledBubbleRob,-0.684153437614,0.0,0.0,0.0,0.0,-0.538563847542
1473349655774173900,210,1473349655773896407,/rosControlledBubbleRob,-0.750617682934,0.0,0.0,0.0,0.0,-0.50797021389
1473349655830331725,211,1473349655830060698,/rosControlledBubbleRob,-0.819896578789,0.0,0.0,0.0,0.0,-0.474796414375
1473349655881083654,212,1473349655880886466,/rosControlledBubbleRob,-0.887167572975,0.0,0.0,0.0,0.0,-0.444350033998
1473349655922289046,213,1473349655922026008,/rosControlledBubbleRob,-0.943271994591,0.0,0.0,0.0,0.0,-0.3390879035
1473349655957658813,214,1473349655957331443,/rosControlledBubbleRob,-0.988427102566,0.0,0.0,0.0,0.0,-0.0838231146336
1473349655993865526,215,1473349655993596070,/rosControlledBubbleRob,-1.00021851063,0.0,0.0,0.0,0.0,-3.20443796227e-05
1473349656034171670,216,1473349656033834591,/rosControlledBubbleRob,-1.00035655499,0.0,0.0,0.0,0.0,0.000863292312715
1473349656070578146,217,1473349656070351528,/rosControlledBubbleRob,-0.961913645267,0.0,0.0,0.0,0.0,-0.0221268236637
1473349656120038823,218,1473349656119816699,/rosControlledBubbleRob,-0.900546550751,0.0,0.0,0.0,0.0,-0.0192049331963
1473349656176804826,219,1473349656176327971,/rosControlledBubbleRob,-0.84335911274,0.0,0.0,0.0,0.0,-0.0209394115955
1473349656230861884,220,1473349656230622775,/rosControlledBubbleRob,-0.789362967014,0.0,0.0,0.0,0.0,-0.0167702902108
1473349656287297884,221,1473349656287105939,/rosControlledBubbleRob,-0.759060442448,0.0,0.0,0.0,0.0,0.0110785411671
1473349656339933612,222,1473349656339683224,/rosControlledBubbleRob,-0.746718943119,0.0,0.0,0.0,0.0,0.000333428324666
1473349656393372719,223,1473349656392746483,/rosControlledBubbleRob,-0.746645569801,0.0,0.0,0.0,0.0,0.00115228735376
1473349656430993813,224,1473349656430703279,/rosControlledBubbleRob,-0.745640873909,0.0,0.0,0.0,0.0,-0.00906915590167
1473349656467479908,225,1473349656467260130,/rosControlledBubbleRob,-0.746437549591,0.0,0.0,0.0,0.0,0.00042624186608
1473349656508936509,226,1473349656508588632,/rosControlledBubbleRob,-0.746474921703,0.0,0.0,0.0,0.0,0.000574400532059
1473349656545678233,227,1473349656545393359,/rosControlledBubbleRob,-0.746452987194,0.0,0.0,0.0,0.0,0.000494603242259
1473349656580352898,228,1473349656579954698,/rosControlledBubbleRob,-0.745581328869,0.0,0.0,0.0,0.0,-0.00927765201777
1473349656616689980,229,1473349656616281589,/rosControlledBubbleRob,-0.746424615383,0.0,0.0,0.0,0.0,0.000699764699675
1473349656650427027,230,1473349656650002020,/rosControlledBubbleRob,-0.746455848217,0.0,0.0,0.0,0.0,0.000670906913001
1473349656686824188,231,1473349656686567551,/rosControlledBubbleRob,-0.746505498886,0.0,0.0,0.0,0.0,0.000556547776796
1473349656721253716,232,1473349656720865551,/rosControlledBubbleRob,-0.745525062084,0.0,0.0,0.0,0.0,-0.000283991830656
1473349656756501514,233,1473349656756287044,/rosControlledBubbleRob,-0.746483504772,0.0,0.0,0.0,0.0,0.000485549797304
1473349656791065834,234,1473349656790734972,/rosControlledBubbleRob,-0.746524214745,0.0,0.0,0.0,0.0,0.000421937525971
1473349656828269781,235,1473349656827418153,/rosControlledBubbleRob,-0.74650478363,0.0,0.0,0.0,0.0,0.000170228333445
1473349656863086758,236,1473349656862792982,/rosControlledBubbleRob,-0.74542427063,0.0,0.0,0.0,0.0,0.00188275624532
1473349656901158737,237,1473349656900921217,/rosControlledBubbleRob,-0.746396780014,0.0,0.0,0.0,0.0,-6.62329985062e-05
1473349656936259644,238,1473349656935928644,/rosControlledBubbleRob,-0.746455192566,0.0,0.0,0.0,0.0,-4.16775692429e-05
1473349656972156693,239,1473349656971975537,/rosControlledBubbleRob,-0.746460795403,0.0,0.0,0.0,0.0,0.000183673488209
1473349657009469475,240,1473349657009188326,/rosControlledBubbleRob,-0.746151208878,0.0,0.0,0.0,0.0,-0.00433849962428
1473349657046755717,241,1473349657045703216,/rosControlledBubbleRob,-0.746475815773,0.0,0.0,0.0,0.0,0.000228718257858
1473349657082440356,242,1473349657082154206,/rosControlledBubbleRob,-0.746491491795,0.0,0.0,0.0,0.0,0.000151421612827
1473349657118044925,243,1473349657117741607,/rosControlledBubbleRob,-0.746482729912,0.0,0.0,0.0,0.0,0.000269562937319
1473349657153015793,244,1473349657152771641,/rosControlledBubbleRob,-0.745478153229,0.0,0.0,0.0,0.0,-0.0094258133322
1473349657191218225,245,1473349657190843251,/rosControlledBubbleRob,-0.746550440788,0.0,0.0,0.0,0.0,0.000686885381583
1473349657238028889,246,1473349657237791141,/rosControlledBubbleRob,-0.746525108814,0.0,0.0,0.0,0.0,0.000497208093293
1473349657274934485,247,1473349657274452586,/rosControlledBubbleRob,-0.746541380882,0.0,0.0,0.0,0.0,0.000358325283742
1473349657313642316,248,1473349657313369024,/rosControlledBubbleRob,-0.746532797813,0.0,0.0,0.0,0.0,-5.74475925532e-05
1473349657350120715,249,1473349657349791285,/rosControlledBubbleRob,-0.746529102325,0.0,0.0,0.0,0.0,-0.00059844966745
1473349657390416927,250,1473349657390084576,/rosControlledBubbleRob,-0.746494829655,0.0,0.0,0.0,0.0,-0.000290424533887
1473349657427127385,251,1473349657426843052,/rosControlledBubbleRob,-0.745478510857,0.0,0.0,0.0,0.0,-0.00198889593594
1473349657464571002,252,1473349657464098511,/rosControlledBubbleRob,-0.746502280235,0.0,0.0,0.0,0.0,-9.27581731958e-06
1473349657503584403,253,1473349657503304845,/rosControlledBubbleRob,-0.746474385262,0.0,0.0,0.0,0.0,-0.000374303752324
1473349657540638568,254,1473349657540214386,/rosControlledBubbleRob,-0.737091124058,0.0,0.0,0.0,0.0,0.00189597904682
1473349657579282455,255,1473349657579089184,/rosControlledBubbleRob,-0.684172689915,0.0,0.0,0.0,0.0,-0.063668936491
1473349657614822509,256,1473349657614637374,/rosControlledBubbleRob,-0.610984027386,0.0,0.0,0.0,0.0,-0.0579467527568
1473349657652879632,257,1473349657652606120,/rosControlledBubbleRob,-0.530524253845,0.0,0.0,0.0,0.0,-0.0502544045448
1473349657687408833,258,1473349657687248605,/rosControlledBubbleRob,-0.45366820693,0.0,0.0,0.0,0.0,-0.0101172095165
1473349657730349910,259,1473349657730107434,/rosControlledBubbleRob,-0.375732630491,0.0,0.0,0.0,0.0,0.0214804559946
1473349657764787151,260,1473349657764503933,/rosControlledBubbleRob,-0.304714947939,0.0,0.0,0.0,0.0,0.0192533116788
1473349657802566199,261,1473349657802310838,/rosControlledBubbleRob,-0.234763860703,0.0,0.0,0.0,0.0,0.019868247211
1473349657850520394,262,1473349657850254936,/rosControlledBubbleRob,-0.168302893639,0.0,0.0,0.0,0.0,-0.0331355594099
1473349657907039207,263,1473349657906762166,/rosControlledBubbleRob,-0.106334067881,0.0,0.0,0.0,0.0,-0.172942459583
1473349657956690141,264,1473349657956511136,/rosControlledBubbleRob,-0.055418908596,0.0,0.0,0.0,0.0,0.340987473726
1473349657999022023,265,1473349657998666946,/rosControlledBubbleRob,0.0248566232622,0.0,0.0,0.0,0.0,0.506484210491
1473349658033777281,266,1473349658033335059,/rosControlledBubbleRob,0.0951810032129,0.0,0.0,0.0,0.0,0.545351028442
1473349658070564571,267,1473349658070257219,/rosControlledBubbleRob,0.165307447314,0.0,0.0,0.0,0.0,0.583227753639
1473349658106944113,268,1473349658106651696,/rosControlledBubbleRob,0.225609496236,0.0,0.0,0.0,0.0,0.624499022961
1473349658150021553,269,1473349658149795150,/rosControlledBubbleRob,0.294023156166,0.0,0.0,0.0,0.0,0.686155498028
1473349658185145003,270,1473349658184988356,/rosControlledBubbleRob,0.359839260578,0.0,0.0,0.0,0.0,0.761741399765
1473349658220540924,271,1473349658220212500,/rosControlledBubbleRob,0.424508005381,0.0,0.0,0.0,0.0,0.844053030014
1473349658258594967,272,1473349658258252560,/rosControlledBubbleRob,0.491411089897,0.0,0.0,0.0,0.0,0.939795076847
1473349658296933930,273,1473349658296517710,/rosControlledBubbleRob,0.548846244812,0.0,0.0,0.0,0.0,1.03589308262
1473349658338677922,274,1473349658338452912,/rosControlledBubbleRob,0.614063322544,0.0,0.0,0.0,0.0,1.11788356304
1473349658377549203,275,1473349658377258173,/rosControlledBubbleRob,0.681035518646,0.0,0.0,0.0,0.0,1.29526972771
1473349658413365699,276,1473349658413114917,/rosControlledBubbleRob,0.742705404758,0.0,0.0,0.0,0.0,1.38357937336
1473349658452447158,277,1473349658452033394,/rosControlledBubbleRob,0.775483250618,0.0,0.0,0.0,0.0,1.20783424377
1473349658489231087,278,1473349658489052877,/rosControlledBubbleRob,0.810812175274,0.0,0.0,0.0,0.0,1.0306044817
1473349658525111140,279,1473349658524888769,/rosControlledBubbleRob,0.827663004398,0.0,0.0,0.0,0.0,0.535709798336
1473349658577657825,280,1473349658577181626,/rosControlledBubbleRob,0.8263489604,0.0,0.0,0.0,0.0,0.307392090559
1473349658629962188,281,1473349658629748910,/rosControlledBubbleRob,0.832148790359,0.0,0.0,0.0,0.0,0.107351787388
1473349658679986649,282,1473349658679735568,/rosControlledBubbleRob,0.837199270725,0.0,0.0,0.0,0.0,0.0016233039787
1473349658732341077,283,1473349658731716141,/rosControlledBubbleRob,0.837758362293,0.0,0.0,0.0,0.0,-0.00361553533003
1473349658782499539,284,1473349658782297926,/rosControlledBubbleRob,0.837365210056,0.0,0.0,0.0,0.0,0.000399959157221
1473349658822818430,285,1473349658822324190,/rosControlledBubbleRob,0.837351799011,0.0,0.0,0.0,0.0,0.000260448956396
1473349658861356991,286,1473349658860654642,/rosControlledBubbleRob,0.837351024151,0.0,0.0,0.0,0.0,0.000412645866163
1473349658897530401,287,1473349658897196560,/rosControlledBubbleRob,0.837522447109,0.0,0.0,0.0,0.0,0.00560718681663
1473349658944677925,288,1473349658944425769,/rosControlledBubbleRob,0.837340712547,0.0,0.0,0.0,0.0,0.000406451406889
1473349658982522841,289,1473349658982168980,/rosControlledBubbleRob,0.837290346622,0.0,0.0,0.0,0.0,0.00105496298056
1473349659018624878,290,1473349659018458762,/rosControlledBubbleRob,0.837339878082,0.0,0.0,0.0,0.0,0.00030317081837
1473349659055526790,291,1473349659055328107,/rosControlledBubbleRob,0.837371587753,0.0,0.0,0.0,0.0,0.000433714973042
1473349659091456444,292,1473349659091301233,/rosControlledBubbleRob,0.837443590164,0.0,0.0,0.0,0.0,-0.0021056374535
1473349659128736114,293,1473349659128462503,/rosControlledBubbleRob,0.837383210659,0.0,0.0,0.0,0.0,0.000203003321076
1473349659164968626,294,1473349659164688744,/rosControlledBubbleRob,0.837378799915,0.0,0.0,0.0,0.0,-0.000254091690294
1473349659205435599,295,1473349659205140428,/rosControlledBubbleRob,0.830409884453,0.0,0.0,0.0,0.0,-0.00238569825888
1473349659240767795,296,1473349659240330376,/rosControlledBubbleRob,0.828646183014,0.0,0.0,0.0,0.0,0.000606073590461
1473349659277943389,297,1473349659277694763,/rosControlledBubbleRob,0.828905284405,0.0,0.0,0.0,0.0,-5.14476887474e-05
1473349659313949353,298,1473349659313762586,/rosControlledBubbleRob,0.828926861286,0.0,0.0,0.0,0.0,0.000728086452
1473349659350317454,299,1473349659350015538,/rosControlledBubbleRob,0.830017149448,0.0,0.0,0.0,0.0,0.00192029622849
1473349659388069373,300,1473349659387778392,/rosControlledBubbleRob,0.828952908516,0.0,0.0,0.0,0.0,-0.000642674509436
1473349659424364830,301,1473349659423929898,/rosControlledBubbleRob,0.829074680805,0.0,0.0,0.0,0.0,-0.000144259276567
1473349659461135886,302,1473349659460646688,/rosControlledBubbleRob,0.829020798206,0.0,0.0,0.0,0.0,-6.02767904638e-05
1473349659497598331,303,1473349659497150142,/rosControlledBubbleRob,0.829741716385,0.0,0.0,0.0,0.0,-0.000189661412151
1473349659540758216,304,1473349659540331277,/rosControlledBubbleRob,0.829060733318,0.0,0.0,0.0,0.0,7.38569360692e-05
1473349659579990764,305,1473349659579762911,/rosControlledBubbleRob,0.829210996628,0.0,0.0,0.0,0.0,-0.000474574539112
1473349659618740126,306,1473349659618510259,/rosControlledBubbleRob,0.829229414463,0.0,0.0,0.0,0.0,-0.000100778983324
1473349659656569507,307,1473349659656063133,/rosControlledBubbleRob,0.830053687096,0.0,0.0,0.0,0.0,-0.00885711424053
1473349659693785623,308,1473349659693513999,/rosControlledBubbleRob,0.828770160675,0.0,0.0,0.0,0.0,0.000735157576855
1473349659750150395,309,1473349659749941734,/rosControlledBubbleRob,0.8288834095,0.0,0.0,0.0,0.0,0.000838932348415
1473349659804167705,310,1473349659803869336,/rosControlledBubbleRob,0.829144179821,0.0,0.0,0.0,0.0,0.000273032434052
1473349659854051084,311,1473349659853871387,/rosControlledBubbleRob,0.829217910767,0.0,0.0,0.0,0.0,-0.000153431828949
1473349659893402607,312,1473349659893242672,/rosControlledBubbleRob,0.829337954521,0.0,0.0,0.0,0.0,0.00133617129177
1473349659949083618,313,1473349659948836546,/rosControlledBubbleRob,0.829236447811,0.0,0.0,0.0,0.0,-0.000268565258011
1473349660004161844,314,1473349660003955662,/rosControlledBubbleRob,0.792375564575,0.0,0.0,0.0,0.0,0.00710536492988
1473349660056198467,315,1473349660055995356,/rosControlledBubbleRob,0.733112990856,0.0,0.0,0.0,0.0,0.0808127447963
1473349660091731827,316,1473349660091456878,/rosControlledBubbleRob,0.647992134094,0.0,0.0,0.0,0.0,0.0773329660296
1473349660131032453,317,1473349660130852151,/rosControlledBubbleRob,0.572452127934,0.0,0.0,0.0,0.0,0.139959380031
1473349660168496494,318,1473349660168334413,/rosControlledBubbleRob,0.522224783897,0.0,0.0,0.0,0.0,-0.233226150274
1473349660208439756,319,1473349660208232397,/rosControlledBubbleRob,0.443356126547,0.0,0.0,0.0,0.0,-0.361920535564
1473349660251606007,320,1473349660251208271,/rosControlledBubbleRob,0.356435477734,0.0,0.0,0.0,0.0,-0.50715816021
1473349660296993519,321,1473349660296358244,/rosControlledBubbleRob,0.274428993464,0.0,0.0,0.0,0.0,-0.614345550537
1473349660334239839,322,1473349660334023474,/rosControlledBubbleRob,0.214006662369,0.0,0.0,0.0,0.0,-0.557743310928
1473349660391961659,323,1473349660391400792,/rosControlledBubbleRob,0.15644942224,0.0,0.0,0.0,0.0,-0.526827275753
1473349660429202766,324,1473349660428933005,/rosControlledBubbleRob,0.088885769248,0.0,0.0,0.0,0.0,-0.454120576382
1473349660468636768,325,1473349660468406688,/rosControlledBubbleRob,0.0393009893596,0.0,0.0,0.0,0.0,-0.465013295412
1473349660507071850,326,1473349660506749328,/rosControlledBubbleRob,-0.0281506888568,0.0,0.0,0.0,0.0,-0.288455188274
1473349660544228939,327,1473349660543558754,/rosControlledBubbleRob,-0.103769898415,0.0,0.0,0.0,0.0,-0.177555412054
1473349660582985116,328,1473349660582682388,/rosControlledBubbleRob,-0.167494758964,0.0,0.0,0.0,0.0,-0.294615805149
1473349660620787029,329,1473349660620506795,/rosControlledBubbleRob,-0.246218830347,0.0,0.0,0.0,0.0,-0.543548703194
1473349660657273426,330,1473349660657011583,/rosControlledBubbleRob,-0.335716724396,0.0,0.0,0.0,0.0,-0.632978975773
1473349660712929716,331,1473349660712709245,/rosControlledBubbleRob,-0.416359752417,0.0,0.0,0.0,0.0,-0.618895888329
1473349660753972851,332,1473349660753828134,/rosControlledBubbleRob,-0.491949528456,0.0,0.0,0.0,0.0,-0.579422354698
1473349660791580354,333,1473349660791374438,/rosControlledBubbleRob,-0.563109755516,0.0,0.0,0.0,0.0,-0.528503954411
1473349660827479655,334,1473349660827117903,/rosControlledBubbleRob,-0.639514029026,0.0,0.0,0.0,0.0,-0.452072948217
1473349660865507079,335,1473349660865081431,/rosControlledBubbleRob,-0.710504591465,0.0,0.0,0.0,0.0,-0.390791237354
1473349660907056979,336,1473349660906543385,/rosControlledBubbleRob,-0.779047846794,0.0,0.0,0.0,0.0,-0.34267616272
1473349660943357151,337,1473349660942943478,/rosControlledBubbleRob,-0.8532756567,0.0,0.0,0.0,0.0,-0.28144544363
1473349660979812819,338,1473349660979520187,/rosControlledBubbleRob,-0.916786432266,0.0,0.0,0.0,0.0,-0.210806056857
1473349661018257843,339,1473349661018041994,/rosControlledBubbleRob,-0.956193864346,0.0,0.0,0.0,0.0,-0.096907928586
1473349661068685313,340,1473349661068464858,/rosControlledBubbleRob,-0.982086360455,0.0,0.0,0.0,0.0,-0.0399583615363
1473349661122884469,341,1473349661122644059,/rosControlledBubbleRob,-0.998771488667,0.0,0.0,0.0,0.0,-0.00711948145181
1473349661165659929,342,1473349661165323642,/rosControlledBubbleRob,-0.998994290829,0.0,0.0,0.0,0.0,-0.0122785810381
1473349661204232447,343,1473349661204027917,/rosControlledBubbleRob,-1.00018322468,0.0,0.0,0.0,0.0,-5.7338188526e-06
1473349661244916115,344,1473349661244644587,/rosControlledBubbleRob,-1.00017404556,0.0,0.0,0.0,0.0,-3.71667156287e-05
1473349661288078041,345,1473349661287897177,/rosControlledBubbleRob,-1.00024473667,0.0,0.0,0.0,0.0,6.37016055407e-05
1473349661324466616,346,1473349661324202913,/rosControlledBubbleRob,-0.999243319035,0.0,0.0,0.0,0.0,-0.0105764027685
1473349661359836157,347,1473349661359598000,/rosControlledBubbleRob,-1.00019884109,0.0,0.0,0.0,0.0,1.31195120048e-05
1473349661395516725,348,1473349661395279339,/rosControlledBubbleRob,-1.00021696091,0.0,0.0,0.0,0.0,0.00039857334923
1473349661441324326,349,1473349661441110940,/rosControlledBubbleRob,-1.00028777122,0.0,0.0,0.0,0.0,0.000410978129366
1473349661498463282,350,1473349661497765313,/rosControlledBubbleRob,-0.999401986599,0.0,0.0,0.0,0.0,-0.00896785501391
1473349661538536342,351,1473349661538356564,/rosControlledBubbleRob,-1.00024425983,0.0,0.0,0.0,0.0,0.000219620153075
1473349661590766480,352,1473349661590548131,/rosControlledBubbleRob,-1.00029754639,0.0,0.0,0.0,0.0,0.000504387251567
1473349661631108243,353,1473349661630640912,/rosControlledBubbleRob,-1.00037169456,0.0,0.0,0.0,0.0,0.000455038185464
1473349661668099041,354,1473349661667877230,/rosControlledBubbleRob,-0.999412477016,0.0,0.0,0.0,0.0,-0.00999880023301
1473349661703780978,355,1473349661703413639,/rosControlledBubbleRob,-1.00017523766,0.0,0.0,0.0,0.0,0.000386237545172
1473349661738424778,356,1473349661738100512,/rosControlledBubbleRob,-1.00019812584,0.0,0.0,0.0,0.0,0.000280619133264
1473349661774018765,357,1473349661773789859,/rosControlledBubbleRob,-1.00021839142,0.0,0.0,0.0,0.0,0.000357626384357
1473349661810394490,358,1473349661810146583,/rosControlledBubbleRob,-0.99909555912,0.0,0.0,0.0,0.0,0.00602170685306
1473349661848133722,359,1473349661847905052,/rosControlledBubbleRob,-1.00028502941,0.0,0.0,0.0,0.0,0.000616943696514
1473349661883612520,360,1473349661883382783,/rosControlledBubbleRob,-1.00022864342,0.0,0.0,0.0,0.0,0.000275931175565
1473349661934797545,361,1473349661934297861,/rosControlledBubbleRob,-1.00024485588,0.0,0.0,0.0,0.0,-5.90062118135e-05
1473349661991764356,362,1473349661991478004,/rosControlledBubbleRob,-0.999005615711,0.0,0.0,0.0,0.0,1.45490012073e-05
1473349662045149986,363,1473349662044986120,/rosControlledBubbleRob,-1.00026357174,0.0,0.0,0.0,0.0,-0.000314979959512
1473349662099358213,364,1473349662099145062,/rosControlledBubbleRob,-0.960410356522,0.0,0.0,0.0,0.0,0.0701436027884
1473349662138241903,365,1473349662137789080,/rosControlledBubbleRob,-0.880999922752,0.0,0.0,0.0,0.0,0.163746312261
1473349662174425103,366,1473349662174202901,/rosControlledBubbleRob,-0.818195819855,0.0,0.0,0.0,0.0,0.174568742514
1473349662212929383,367,1473349662212620282,/rosControlledBubbleRob,-0.744584798813,0.0,0.0,0.0,0.0,0.155750244856
1473349662246966858,368,1473349662246691266,/rosControlledBubbleRob,-0.675957381725,0.0,0.0,0.0,0.0,0.110779210925
1473349662284056008,369,1473349662283715331,/rosControlledBubbleRob,-0.603107571602,0.0,0.0,0.0,0.0,0.0754448473454
1473349662324061016,370,1473349662323873527,/rosControlledBubbleRob,-0.54208779335,0.0,0.0,0.0,0.0,0.0832706019282
1473349662363849439,371,1473349662363527099,/rosControlledBubbleRob,-0.469814270735,0.0,0.0,0.0,0.0,0.0953205376863
1473349662404238214,372,1473349662403968113,/rosControlledBubbleRob,-0.400853127241,0.0,0.0,0.0,0.0,0.0983850061893
1473349662446569301,373,1473349662446332887,/rosControlledBubbleRob,-0.331197589636,0.0,0.0,0.0,0.0,0.113771371543
1473349662500872101,374,1473349662500570468,/rosControlledBubbleRob,-0.25826394558,0.0,0.0,0.0,0.0,0.12629750371
1473349662557640608,375,1473349662557474106,/rosControlledBubbleRob,-0.194558501244,0.0,0.0,0.0,0.0,0.138502374291
1473349662608874582,376,1473349662608671107,/rosControlledBubbleRob,-0.11830791831,0.0,0.0,0.0,0.0,0.212738722563
1473349662660330676,377,1473349662660088873,/rosControlledBubbleRob,-0.0322425179183,0.0,0.0,0.0,0.0,0.359096139669
1473349662710493987,378,1473349662710199001,/rosControlledBubbleRob,0.0654642954469,0.0,0.0,0.0,0.0,0.389152556658
1473349662749630880,379,1473349662749439238,/rosControlledBubbleRob,0.131279751658,0.0,0.0,0.0,0.0,0.396068185568
1473349662785579707,380,1473349662785367248,/rosControlledBubbleRob,0.197916045785,0.0,0.0,0.0,0.0,0.482158571482
1473349662823925811,381,1473349662823682459,/rosControlledBubbleRob,0.264430552721,0.0,0.0,0.0,0.0,0.568311035633
1473349662860418742,382,1473349662860074317,/rosControlledBubbleRob,0.291980952024,0.0,0.0,0.0,0.0,0.221392601728
1473349662902070287,383,1473349662901842544,/rosControlledBubbleRob,0.261425793171,0.0,0.0,0.0,0.0,-0.00757891312242
1473349662939471228,384,1473349662939249415,/rosControlledBubbleRob,0.191944494843,0.0,0.0,0.0,0.0,-0.120269112289
1473349662975114675,385,1473349662974907390,/rosControlledBubbleRob,0.0998761728406,0.0,0.0,0.0,0.0,-0.224030137062
1473349663009542257,386,1473349663009240864,/rosControlledBubbleRob,0.0405113250017,0.0,0.0,0.0,0.0,-0.0578389167786
1473349663046151061,387,1473349663045829440,/rosControlledBubbleRob,0.0134045267478,0.0,0.0,0.0,0.0,-0.0408273413777
1473349663083659235,388,1473349663083330008,/rosControlledBubbleRob,-1.86131383089e-05,0.0,0.0,0.0,0.0,-0.00407946435735
1473349663132858538,389,1473349663132641562,/rosControlledBubbleRob,-0.000417208299041,0.0,0.0,0.0,0.0,-0.000752983381972
1473349663186087858,390,1473349663185899272,/rosControlledBubbleRob,-0.000414980662754,0.0,0.0,0.0,0.0,-0.000725703954231
1473349663222571990,391,1473349663222331001,/rosControlledBubbleRob,-0.000421991106123,0.0,0.0,0.0,0.0,-0.000821420166176
1473349663256768120,392,1473349663256502109,/rosControlledBubbleRob,-0.000402681092964,0.0,0.0,0.0,0.0,-0.000734340457711
1473349663293632118,393,1473349663293362917,/rosControlledBubbleRob,-0.000402299920097,0.0,0.0,0.0,0.0,-0.000429382809671
1473349663329512826,394,1473349663329166126,/rosControlledBubbleRob,-0.000381411489798,0.0,0.0,0.0,0.0,0.000267076218734
1473349663365941270,395,1473349663365678432,/rosControlledBubbleRob,-0.000417994509917,0.0,0.0,0.0,0.0,0.000337478559231
1473349663400534953,396,1473349663400196542,/rosControlledBubbleRob,-0.000385259219911,0.0,0.0,0.0,0.0,7.49290556996e-05
1473349663437607401,397,1473349663437341016,/rosControlledBubbleRob,-0.000425481470302,0.0,0.0,0.0,0.0,6.54586910969e-05
1473349663476733161,398,1473349663476452375,/rosControlledBubbleRob,-0.000328996888129,0.0,0.0,0.0,0.0,-0.000579181360081
1473349663513971368,399,1473349663513610678,/rosControlledBubbleRob,-0.000364847306628,0.0,0.0,0.0,0.0,-0.000148249935592
1473349663547652292,400,1473349663547329684,/rosControlledBubbleRob,-0.000339783582604,0.0,0.0,0.0,0.0,-1.19719716167e-05
1473349663587131009,401,1473349663586860050,/rosControlledBubbleRob,-0.000331706978614,0.0,0.0,0.0,0.0,7.30826286599e-05
1473349663621471458,402,1473349663621166088,/rosControlledBubbleRob,-0.000366616295651,0.0,0.0,0.0,0.0,-0.000101970224932
1473349663658205969,403,1473349663657959026,/rosControlledBubbleRob,-0.000365847925423,0.0,0.0,0.0,0.0,-0.000172551255673
1473349663693709766,404,1473349663693524081,/rosControlledBubbleRob,-0.00033199286554,0.0,0.0,0.0,0.0,-0.00010322102753
1473349663749381661,405,1473349663749161367,/rosControlledBubbleRob,-0.000368814129615,0.0,0.0,0.0,0.0,-4.18721174356e-05
1473349663787221415,406,1473349663787052837,/rosControlledBubbleRob,-0.000380988611141,0.0,0.0,0.0,0.0,2.2693140636e-05
1473349663822176031,407,1473349663821832768,/rosControlledBubbleRob,-0.000383037549909,0.0,0.0,0.0,0.0,0.000167071542819
1473349663855665368,408,1473349663855442619,/rosControlledBubbleRob,-0.000396349671064,0.0,0.0,0.0,0.0,0.000178209636942
1473349663894535331,409,1473349663894355230,/rosControlledBubbleRob,-0.00034563257941,0.0,0.0,0.0,0.0,-0.000603423104621
1473349663947269102,410,1473349663946857753,/rosControlledBubbleRob,-0.000298119935906,0.0,0.0,0.0,0.0,-0.000956566480454
1473349663984844517,411,1473349663984541410,/rosControlledBubbleRob,-0.000331194751197,0.0,0.0,0.0,0.0,-5.97407342866e-05
1473349664020113457,412,1473349664019861154,/rosControlledBubbleRob,-0.000369588437025,0.0,0.0,0.0,0.0,-0.000116086426715
1473349664055182582,413,1473349664054866718,/rosControlledBubbleRob,-0.000357955956133,0.0,0.0,0.0,0.0,7.74306590756e-06
1473349664089676766,414,1473349664089315558,/rosControlledBubbleRob,-0.000351541122654,0.0,0.0,0.0,0.0,0.000362911552656
1473349664125879509,415,1473349664125596443,/rosControlledBubbleRob,-0.000511459249537,0.0,0.0,0.0,0.0,0.000210492275073
1473349664159391613,416,1473349664159114169,/rosControlledBubbleRob,-0.000529292155989,0.0,0.0,0.0,0.0,-0.000425034755608
1473349664195007214,417,1473349664194803412,/rosControlledBubbleRob,-0.000508713477757,0.0,0.0,0.0,0.0,-0.000398291420424
1473349664229585649,418,1473349664229200080,/rosControlledBubbleRob,-0.00045731139835,0.0,0.0,0.0,0.0,-0.000384353887057
1473349664273927910,419,1473349664273654924,/rosControlledBubbleRob,-0.000340825936291,0.0,0.0,0.0,0.0,-0.000805874471553
1473349664310519166,420,1473349664310362974,/rosControlledBubbleRob,-0.000330331095029,0.0,0.0,0.0,0.0,-0.000901292893104
1473349664353773015,421,1473349664353577541,/rosControlledBubbleRob,-0.000352249917341,0.0,0.0,0.0,0.0,-0.000966096413322
1473349664418187316,422,1473349664417888009,/rosControlledBubbleRob,-0.00036216105218,0.0,0.0,0.0,0.0,-0.0007297542179
1473349664460331244,423,1473349664459690811,/rosControlledBubbleRob,-0.000359695171937,0.0,0.0,0.0,0.0,-0.000260762637481
1473349664511440991,424,1473349664510992005,/rosControlledBubbleRob,-0.000496413907968,0.0,0.0,0.0,0.0,0.000587996502873
1473349664554785646,425,1473349664554579616,/rosControlledBubbleRob,-0.000469426333439,0.0,0.0,0.0,0.0,0.000807959178928
1473349664587194698,426,1473349664586806537,/rosControlledBubbleRob,-0.000474465283332,0.0,0.0,0.0,0.0,0.000845006783493
1473349664631018038,427,1473349664630721800,/rosControlledBubbleRob,-0.000467943231342,0.0,0.0,0.0,0.0,0.00109617994167
1473349664666123309,428,1473349664665772776,/rosControlledBubbleRob,-0.000463130621938,0.0,0.0,0.0,0.0,0.000935600604862
1473349664703497460,429,1473349664703216734,/rosControlledBubbleRob,-0.000477943714941,0.0,0.0,0.0,0.0,0.00081117550144
1473349664744616113,430,1473349664744322452,/rosControlledBubbleRob,-0.000400608347263,0.0,0.0,0.0,0.0,0.000369463377865
1473349664783828083,431,1473349664783602020,/rosControlledBubbleRob,-0.000315148732625,0.0,0.0,0.0,0.0,0.00101678364445
1473349664819633576,432,1473349664819432989,/rosControlledBubbleRob,-0.000505741336383,0.0,0.0,0.0,0.0,0.000496390101034
1473349664854680845,433,1473349664854434200,/rosControlledBubbleRob,-0.000513454608154,0.0,0.0,0.0,0.0,0.000876574660651
1473349664888809552,434,1473349664888570054,/rosControlledBubbleRob,-0.000449318176834,0.0,0.0,0.0,0.0,0.000553510093596
