%time,field.header.seq,field.header.stamp,field.header.frame_id,field.twist.linear.x,field.twist.linear.y,field.twist.linear.z,field.twist.angular.x,field.twist.angular.y,field.twist.angular.z
1473349557300777585,97,1473349557300543710,/rosControlledBubbleRob,-0.000578156847041,0.0,0.0,0.0,0.0,0.000143097815453
1473349557342841010,98,1473349557342608273,/rosControlledBubbleRob,-0.000518807733897,0.0,0.0,0.0,0.0,-2.04000002668e-06
1473349557382387639,99,1473349557382207155,/rosControlledBubbleRob,-0.000579470186494,0.0,0.0,0.0,0.0,0.000358652876457
1473349557421757934,100,1473349557421023567,/rosControlledBubbleRob,-0.000525879207999,0.0,0.0,0.0,0.0,0.000499219284393
1473349557458253392,101,1473349557457832802,/rosControlledBubbleRob,-0.000469146383693,0.0,0.0,0.0,0.0,0.00084983126726
1473349557499845612,102,1473349557499587339,/rosControlledBubbleRob,-0.0607485994697,0.0,0.0,0.0,0.0,-0.0138261532411
1473349557536796513,103,1473349557536615996,/rosControlledBubbleRob,-0.149401143193,0.0,0.0,0.0,0.0,-0.0937091484666
1473349557574022490,104,1473349557573746176,/rosControlledBubbleRob,-0.215543031693,0.0,0.0,0.0,0.0,-0.0173603110015
1473349557615665412,105,1473349557615412936,/rosControlledBubbleRob,-0.287104606628,0.0,0.0,0.0,0.0,0.000410025124438
1473349557653892173,106,1473349557653628861,/rosControlledBubbleRob,-0.359454751015,0.0,0.0,0.0,0.0,0.0792032256722
1473349557696496086,107,1473349557696065536,/rosControlledBubbleRob,-0.439358502626,0.0,0.0,0.0,0.0,0.0974759086967
1473349557748676210,108,1473349557748479958,/rosControlledBubbleRob,-0.519624590874,0.0,0.0,0.0,0.0,0.0986452326179
1473349557802753561,109,1473349557802422388,/rosControlledBubbleRob,-0.585943043232,0.0,0.0,0.0,0.0,0.0969689190388
1473349557846664109,110,1473349557846172599,/rosControlledBubbleRob,-0.658397018909,0.0,0.0,0.0,0.0,0.0721501260996
1473349557884781554,111,1473349557884586820,/rosControlledBubbleRob,-0.735531449318,0.0,0.0,0.0,0.0,0.0529144443572
1473349557923415171,112,1473349557923106322,/rosControlledBubbleRob,-0.797390222549,0.0,0.0,0.0,0.0,0.0256269276142
1473349557966256409,113,1473349557966032426,/rosControlledBubbleRob,-0.86805254221,0.0,0.0,0.0,0.0,0.0462758988142
1473349558016653728,114,1473349558016354395,/rosControlledBubbleRob,-0.931051671505,0.0,0.0,0.0,0.0,0.0271188374609
1473349558058700757,115,1473349558058117477,/rosControlledBubbleRob,-0.967113852501,0.0,0.0,0.0,0.0,-0.00474256835878
1473349558099109634,116,1473349558098687255,/rosControlledBubbleRob,-0.990557610989,0.0,0.0,0.0,0.0,-0.0227169655263
1473349558138888202,117,1473349558138423337,/rosControlledBubbleRob,-1.00002789497,0.0,0.0,0.0,0.0,-0.000838633626699
1473349558181950080,118,1473349558181578530,/rosControlledBubbleRob,-0.999307334423,0.0,0.0,0.0,0.0,-0.0103042339906
1473349558222366027,119,1473349558222080228,/rosControlledBubbleRob,-1.00021421909,0.0,0.0,0.0,0.0,0.000128654020955
1473349558262545905,120,1473349558262358381,/rosControlledBubbleRob,-1.00026202202,0.0,0.0,0.0,0.0,0.000189645550563
1473349558301422388,121,1473349558300911963,/rosControlledBubbleRob,-1.00024902821,0.0,0.0,0.0,0.0,-0.000174874163349
1473349558338531232,122,1473349558338061832,/rosControlledBubbleRob,-1.00025761127,0.0,0.0,0.0,0.0,-0.000138183953823
1473349558378421756,123,1473349558377736794,/rosControlledBubbleRob,-1.00019907951,0.0,0.0,0.0,0.0,-1.16741612146e-05
1473349558417189268,124,1473349558416870589,/rosControlledBubbleRob,-1.00025272369,0.0,0.0,0.0,0.0,0.000166535479366
1473349558454603851,125,1473349558454331438,/rosControlledBubbleRob,-1.00029969215,0.0,0.0,0.0,0.0,0.000579673680477
1473349558509995242,126,1473349558509645839,/rosControlledBubbleRob,-0.99910390377,0.0,0.0,0.0,0.0,0.0120851229876
1473349558558345362,127,1473349558558023583,/rosControlledBubbleRob,-0.913055896759,0.0,0.0,0.0,0.0,-0.159381121397
1473349558600390588,128,1473349558600020038,/rosControlledBubbleRob,-0.826308369637,0.0,0.0,0.0,0.0,-0.189946696162
1473349558642512765,129,1473349558642345621,/rosControlledBubbleRob,-0.756376504898,0.0,0.0,0.0,0.0,-0.123805910349
1473349558695209711,130,1473349558694830357,/rosControlledBubbleRob,-0.689140558243,0.0,0.0,0.0,0.0,-0.141212552786
1473349558751602802,131,1473349558751397606,/rosControlledBubbleRob,-0.619098365307,0.0,0.0,0.0,0.0,-0.133985057473
1473349558793146899,132,1473349558792910014,/rosControlledBubbleRob,-0.54955291748,0.0,0.0,0.0,0.0,-0.130480915308
1473349558831417969,133,1473349558831189917,/rosControlledBubbleRob,-0.476652652025,0.0,0.0,0.0,0.0,-0.167410328984
1473349558874837514,134,1473349558874618943,/rosControlledBubbleRob,-0.412156999111,0.0,0.0,0.0,0.0,-0.103446885943
1473349558931287064,135,1473349558930866672,/rosControlledBubbleRob,-0.349346399307,0.0,0.0,0.0,0.0,-0.197132751346
1473349558971773560,136,1473349558971574471,/rosControlledBubbleRob,-0.283434331417,0.0,0.0,0.0,0.0,-0.207658305764
1473349559008478520,137,1473349559007957585,/rosControlledBubbleRob,-0.214190974832,0.0,0.0,0.0,0.0,-0.192457363009
1473349559045204410,138,1473349559045029119,/rosControlledBubbleRob,-0.146382793784,0.0,0.0,0.0,0.0,-0.0879152491689
1473349559082282157,139,1473349559082040983,/rosControlledBubbleRob,-0.0977198928595,0.0,0.0,0.0,0.0,-0.0515299402177
1473349559118915420,140,1473349559118639925,/rosControlledBubbleRob,-0.019904974848,0.0,0.0,0.0,0.0,-0.0573878623545
1473349559160935820,141,1473349559160693013,/rosControlledBubbleRob,0.0534728318453,0.0,0.0,0.0,0.0,0.0410704948008
1473349559199405519,142,1473349559199186727,/rosControlledBubbleRob,0.103465527296,0.0,0.0,0.0,0.0,0.228618368506
1473349559251742071,143,1473349559251539944,/rosControlledBubbleRob,0.163635566831,0.0,0.0,0.0,0.0,0.0571748018265
1473349559292756321,144,1473349559292324908,/rosControlledBubbleRob,0.230703681707,0.0,0.0,0.0,0.0,0.0394803471863
1473349559334332960,145,1473349559334144783,/rosControlledBubbleRob,0.302700549364,0.0,0.0,0.0,0.0,0.072054348886
1473349559387753112,146,1473349559387516260,/rosControlledBubbleRob,0.374005943537,0.0,0.0,0.0,0.0,0.13004206121
1473349559442500110,147,1473349559442193217,/rosControlledBubbleRob,0.447817236185,0.0,0.0,0.0,0.0,0.184720009565
1473349559487099655,148,1473349559486926470,/rosControlledBubbleRob,0.514392971992,0.0,0.0,0.0,0.0,0.257610142231
1473349559529394172,149,1473349559528834699,/rosControlledBubbleRob,0.587965846062,0.0,0.0,0.0,0.0,0.350280106068
1473349559572689667,150,1473349559572100081,/rosControlledBubbleRob,0.661948382854,0.0,0.0,0.0,0.0,0.457496076822
1473349559611766285,151,1473349559611527934,/rosControlledBubbleRob,0.737252354622,0.0,0.0,0.0,0.0,0.594302713871
1473349559668212015,152,1473349559668006402,/rosControlledBubbleRob,0.814817786217,0.0,0.0,0.0,0.0,0.77165389061
1473349559706124530,153,1473349559705919679,/rosControlledBubbleRob,0.870318770409,0.0,0.0,0.0,0.0,0.931735098362
1473349559741446257,154,1473349559741172004,/rosControlledBubbleRob,0.894098222256,0.0,0.0,0.0,0.0,0.854849755764
1473349559796919183,155,1473349559796707235,/rosControlledBubbleRob,0.924618303776,0.0,0.0,0.0,0.0,0.681555867195
1473349559851860992,156,1473349559851649395,/rosControlledBubbleRob,0.945223867893,0.0,0.0,0.0,0.0,0.571438252926
1473349559908619390,157,1473349559908385253,/rosControlledBubbleRob,0.96622133255,0.0,0.0,0.0,0.0,0.281776845455
1473349559965470106,158,1473349559965069413,/rosControlledBubbleRob,0.989631891251,0.0,0.0,0.0,0.0,0.102934651077
1473349560011147484,159,1473349560010842828,/rosControlledBubbleRob,0.948696136475,0.0,0.0,0.0,0.0,0.058665279299
1473349560064378883,160,1473349560064114156,/rosControlledBubbleRob,0.879127383232,0.0,0.0,0.0,0.0,0.0672377049923
1473349560118452209,161,1473349560118142259,/rosControlledBubbleRob,0.808407723904,0.0,0.0,0.0,0.0,0.0424422323704
1473349560167175628,162,1473349560166952283,/rosControlledBubbleRob,0.73819565773,0.0,0.0,0.0,0.0,0.00279989279807
1473349560221335271,163,1473349560221082392,/rosControlledBubbleRob,0.673220574856,0.0,0.0,0.0,0.0,-0.0767595171928
1473349560272729313,164,1473349560272539954,/rosControlledBubbleRob,0.602552890778,0.0,0.0,0.0,0.0,-0.133475095034
1473349560324459008,165,1473349560324292171,/rosControlledBubbleRob,0.528914272785,0.0,0.0,0.0,0.0,-0.248016238213
1473349560375141181,166,1473349560374937368,/rosControlledBubbleRob,0.460059553385,0.0,0.0,0.0,0.0,-0.312158972025
1473349560420540739,167,1473349560420260795,/rosControlledBubbleRob,0.388739526272,0.0,0.0,0.0,0.0,-0.275362491608
1473349560455804394,168,1473349560455483690,/rosControlledBubbleRob,0.320305794477,0.0,0.0,0.0,0.0,-0.269618809223
1473349560494941813,169,1473349560494719683,/rosControlledBubbleRob,0.247959569097,0.0,0.0,0.0,0.0,-0.340690851212
1473349560532811561,170,1473349560532546665,/rosControlledBubbleRob,0.178457990289,0.0,0.0,0.0,0.0,-0.353091448545
1473349560572798069,171,1473349560572555809,/rosControlledBubbleRob,0.108940787613,0.0,0.0,0.0,0.0,-0.251473814249
1473349560624155778,172,1473349560623973002,/rosControlledBubbleRob,0.0318343378603,0.0,0.0,0.0,0.0,-0.27077382803
1473349560676016351,173,1473349560675808116,/rosControlledBubbleRob,-0.0426331758499,0.0,0.0,0.0,0.0,-0.345491319895
1473349560718871736,174,1473349560718725053,/rosControlledBubbleRob,-0.124857768416,0.0,0.0,0.0,0.0,-0.382358789444
1473349560761099810,175,1473349560760813873,/rosControlledBubbleRob,-0.209438368678,0.0,0.0,0.0,0.0,-0.191310688853
1473349560803398544,176,1473349560803224159,/rosControlledBubbleRob,-0.274905979633,0.0,0.0,0.0,0.0,-0.110489979386
1473349560846669564,177,1473349560846386189,/rosControlledBubbleRob,-0.352506220341,0.0,0.0,0.0,0.0,-0.158027634025
1473349560886927211,178,1473349560886785119,/rosControlledBubbleRob,-0.421200245619,0.0,0.0,0.0,0.0,-0.112691871822
1473349560930557165,179,1473349560930267860,/rosControlledBubbleRob,-0.492846608162,0.0,0.0,0.0,0.0,-0.105340480804
1473349560967577830,180,1473349560967353145,/rosControlledBubbleRob,-0.559469759464,0.0,0.0,0.0,0.0,-0.0566309019923
1473349561003813786,181,1473349561003624071,/rosControlledBubbleRob,-0.628753721714,0.0,0.0,0.0,0.0,-0.0210698135197
1473349561041045586,182,1473349561040824872,/rosControlledBubbleRob,-0.697332620621,0.0,0.0,0.0,0.0,-0.00839979760349
1473349561079292062,183,1473349561079097183,/rosControlledBubbleRob,-0.765424191952,0.0,0.0,0.0,0.0,0.00353083806112
1473349561115071804,184,1473349561114783711,/rosControlledBubbleRob,-0.83450704813,0.0,0.0,0.0,0.0,0.0183536875993
1473349561152175561,185,1473349561151919788,/rosControlledBubbleRob,-0.904694020748,0.0,0.0,0.0,0.0,0.0396583154798
1473349561187992481,186,1473349561187739876,/rosControlledBubbleRob,-0.960167229176,0.0,0.0,0.0,0.0,-0.0743234306574
1473349561229068039,187,1473349561228685636,/rosControlledBubbleRob,-0.990235328674,0.0,0.0,0.0,0.0,-0.0471783839166
1473349561272385440,188,1473349561272117271,/rosControlledBubbleRob,-1.00007975101,0.0,0.0,0.0,0.0,-0.00131036504172
1473349561314923637,189,1473349561314018846,/rosControlledBubbleRob,-1.00024437904,0.0,0.0,0.0,0.0,0.000179639129783
1473349561350087276,190,1473349561349765267,/rosControlledBubbleRob,-1.00023663044,0.0,0.0,0.0,0.0,-0.000119124095363
1473349561388565368,191,1473349561388380102,/rosControlledBubbleRob,-0.998779654503,0.0,0.0,0.0,0.0,0.00275819934905
1473349561424456383,192,1473349561424204035,/rosControlledBubbleRob,-1.00016570091,0.0,0.0,0.0,0.0,5.00321184518e-05
1473349561463309054,193,1473349561462990259,/rosControlledBubbleRob,-1.00020253658,0.0,0.0,0.0,0.0,0.000150334599311
1473349561500365801,194,1473349561500079631,/rosControlledBubbleRob,-1.00015473366,0.0,0.0,0.0,0.0,3.88503176509e-05
1473349561537875453,195,1473349561537377627,/rosControlledBubbleRob,-0.999316573143,0.0,0.0,0.0,0.0,0.0099437488243
1473349561578390553,196,1473349561578001509,/rosControlledBubbleRob,-1.00021076202,0.0,0.0,0.0,0.0,0.000262668618234
1473349561617548503,197,1473349561617142738,/rosControlledBubbleRob,-1.00018846989,0.0,0.0,0.0,0.0,3.96683244617e-05
1473349561655383249,198,1473349561655196979,/rosControlledBubbleRob,-1.00022816658,0.0,0.0,0.0,0.0,0.000498176959809
1473349561698569670,199,1473349561698287549,/rosControlledBubbleRob,-0.998935759068,0.0,0.0,0.0,0.0,0.00269102910534
1473349561739036161,200,1473349561738755349,/rosControlledBubbleRob,-1.00018811226,0.0,0.0,0.0,0.0,0.00031328049954
1473349561776897953,201,1473349561776636170,/rosControlledBubbleRob,-1.00014877319,0.0,0.0,0.0,0.0,-0.000131513006636
1473349561814220270,202,1473349561813976465,/rosControlledBubbleRob,-1.00020718575,0.0,0.0,0.0,0.0,0.000616586301476
1473349561850806786,203,1473349561850568072,/rosControlledBubbleRob,-0.999110817909,0.0,0.0,0.0,0.0,0.00304433540441
1473349561886993386,204,1473349561886841808,/rosControlledBubbleRob,-1.00020694733,0.0,0.0,0.0,0.0,0.000427671358921
1473349561924043928,205,1473349561923836356,/rosControlledBubbleRob,-1.00026655197,0.0,0.0,0.0,0.0,0.000738315284252
1473349561961849891,206,1473349561961577534,/rosControlledBubbleRob,-0.998938202858,0.0,0.0,0.0,0.0,0.00168036448304
1473349561998600503,207,1473349561998396682,/rosControlledBubbleRob,-1.00025177002,0.0,0.0,0.0,0.0,0.000674957118463
1473349562034731734,208,1473349562034317327,/rosControlledBubbleRob,-1.00019299984,0.0,0.0,0.0,0.0,0.000360231264494
1473349562087027413,209,1473349562086841389,/rosControlledBubbleRob,-1.00018572807,0.0,0.0,0.0,0.0,-8.98037033039e-05
1473349562130210633,210,1473349562129952469,/rosControlledBubbleRob,-1.00033438206,0.0,0.0,0.0,0.0,-0.000439583760453
1473349562186020254,211,1473349562185814468,/rosControlledBubbleRob,-1.00015199184,0.0,0.0,0.0,0.0,-0.000162961761816
1473349562238456254,212,1473349562237930730,/rosControlledBubbleRob,-1.00014221668,0.0,0.0,0.0,0.0,-6.24210224487e-05
1473349562292825216,213,1473349562292528564,/rosControlledBubbleRob,-1.00019156933,0.0,0.0,0.0,0.0,-9.14873016882e-05
1473349562331243905,214,1473349562331008259,/rosControlledBubbleRob,-1.00035560131,0.0,0.0,0.0,0.0,-0.000457658898085
1473349562388239320,215,1473349562387917403,/rosControlledBubbleRob,-0.952568471432,0.0,0.0,0.0,0.0,0.0148554733023
1473349562429501086,216,1473349562429217009,/rosControlledBubbleRob,-0.862415075302,0.0,0.0,0.0,0.0,0.128806978464
1473349562466900333,217,1473349562466687771,/rosControlledBubbleRob,-0.77977001667,0.0,0.0,0.0,0.0,0.208886772394
1473349562506860189,218,1473349562506602843,/rosControlledBubbleRob,-0.701833665371,0.0,0.0,0.0,0.0,0.207456216216
1473349562543847382,219,1473349562543319838,/rosControlledBubbleRob,-0.653757452965,0.0,0.0,0.0,0.0,-0.0398560613394
1473349562583630258,220,1473349562583374822,/rosControlledBubbleRob,-0.576707601547,0.0,0.0,0.0,0.0,-0.038055382669
1473349562620385846,221,1473349562620082386,/rosControlledBubbleRob,-0.506399869919,0.0,0.0,0.0,0.0,-0.057567179203
1473349562656579485,222,1473349562656284437,/rosControlledBubbleRob,-0.437150359154,0.0,0.0,0.0,0.0,-0.0744518563151
1473349562693275288,223,1473349562693101473,/rosControlledBubbleRob,-0.410143435001,0.0,0.0,0.0,0.0,-0.0218182932585
1473349562745847880,224,1473349562745592380,/rosControlledBubbleRob,-0.352223515511,0.0,0.0,0.0,0.0,-0.05392318964
1473349562781330184,225,1473349562781101750,/rosControlledBubbleRob,-0.282090187073,0.0,0.0,0.0,0.0,0.00568793714046
1473349562818939497,226,1473349562818762824,/rosControlledBubbleRob,-0.212425604463,0.0,0.0,0.0,0.0,0.0558215491474
1473349562856840897,227,1473349562856612291,/rosControlledBubbleRob,-0.119918599725,0.0,0.0,0.0,0.0,0.332144647837
1473349562893979696,228,1473349562893720667,/rosControlledBubbleRob,-0.0383878313005,0.0,0.0,0.0,0.0,0.549638092518
1473349562932136785,229,1473349562931804523,/rosControlledBubbleRob,0.0305548403412,0.0,0.0,0.0,0.0,0.588728547096
1473349562969616055,230,1473349562968905630,/rosControlledBubbleRob,0.0993580073118,0.0,0.0,0.0,0.0,0.611568450928
1473349563007228355,231,1473349563007045040,/rosControlledBubbleRob,0.172444701195,0.0,0.0,0.0,0.0,0.611411571503
1473349563043014978,232,1473349563042805176,/rosControlledBubbleRob,0.257629573345,0.0,0.0,0.0,0.0,0.697492539883
1473349563080241428,233,1473349563079966752,/rosControlledBubbleRob,0.318843841553,0.0,0.0,0.0,0.0,0.765034675598
1473349563116281957,234,1473349563116000016,/rosControlledBubbleRob,0.388112545013,0.0,0.0,0.0,0.0,0.864069700241
1473349563154560847,235,1473349563154384577,/rosControlledBubbleRob,0.453853905201,0.0,0.0,0.0,0.0,0.981783628464
1473349563190797903,236,1473349563190612308,/rosControlledBubbleRob,0.522012114525,0.0,0.0,0.0,0.0,1.12016677856
1473349563227483865,237,1473349563227229107,/rosControlledBubbleRob,0.57398968935,0.0,0.0,0.0,0.0,1.28843164444
1473349563265015724,238,1473349563264645033,/rosControlledBubbleRob,0.635325193405,0.0,0.0,0.0,0.0,1.46009325981
1473349563302845308,239,1473349563302667406,/rosControlledBubbleRob,0.696792006493,0.0,0.0,0.0,0.0,1.68753170967
1473349563341575751,240,1473349563341239990,/rosControlledBubbleRob,0.761812806129,0.0,0.0,0.0,0.0,2.02691745758
1473349563380236166,241,1473349563379819522,/rosControlledBubbleRob,0.822856903076,0.0,0.0,0.0,0.0,1.76923394203
1473349563415848368,242,1473349563415620832,/rosControlledBubbleRob,0.847235679626,0.0,0.0,0.0,0.0,1.66210484505
1473349563455673786,243,1473349563455345687,/rosControlledBubbleRob,0.866667687893,0.0,0.0,0.0,0.0,1.59911715984
1473349563494923251,244,1473349563494683032,/rosControlledBubbleRob,0.884516179562,0.0,0.0,0.0,0.0,1.5023086071
1473349563533047371,245,1473349563532719977,/rosControlledBubbleRob,0.892493486404,0.0,0.0,0.0,0.0,1.40985918045
1473349563571626036,246,1473349563571354850,/rosControlledBubbleRob,0.904348731041,0.0,0.0,0.0,0.0,1.2692284584
1473349563611757826,247,1473349563611455920,/rosControlledBubbleRob,0.913800179958,0.0,0.0,0.0,0.0,1.11123383045
1473349563648598880,248,1473349563648136803,/rosControlledBubbleRob,0.92201256752,0.0,0.0,0.0,0.0,0.91511631012
1473349563688340746,249,1473349563688097097,/rosControlledBubbleRob,0.930711150169,0.0,0.0,0.0,0.0,0.722090184689
1473349563727597885,250,1473349563727392085,/rosControlledBubbleRob,0.95238494873,0.0,0.0,0.0,0.0,0.476579517126
1473349563765146969,251,1473349563764864399,/rosControlledBubbleRob,0.972753703594,0.0,0.0,0.0,0.0,0.27211278677
1473349563807607425,252,1473349563806967852,/rosControlledBubbleRob,0.897992610931,0.0,0.0,0.0,0.0,0.566540837288
1473349563861182522,253,1473349563860956234,/rosControlledBubbleRob,0.834708809853,0.0,0.0,0.0,0.0,0.563544154167
1473349563899161420,254,1473349563898896785,/rosControlledBubbleRob,0.769287407398,0.0,0.0,0.0,0.0,0.611310601234
1473349563937660691,255,1473349563937340514,/rosControlledBubbleRob,0.698772490025,0.0,0.0,0.0,0.0,0.696527779102
1473349563977263290,256,1473349563976861393,/rosControlledBubbleRob,0.625070631504,0.0,0.0,0.0,0.0,0.824150264263
1473349564016698519,257,1473349564016250429,/rosControlledBubbleRob,0.5200522542,0.0,0.0,0.0,0.0,1.13053607941
1473349564055419056,258,1473349564055158686,/rosControlledBubbleRob,0.433891564608,0.0,0.0,0.0,0.0,1.19961297512
1473349564093015397,259,1473349564092678195,/rosControlledBubbleRob,0.358884900808,0.0,0.0,0.0,0.0,1.23193800449
1473349564130427320,260,1473349564130052873,/rosControlledBubbleRob,0.29146823287,0.0,0.0,0.0,0.0,1.3618247509
1473349564169899065,261,1473349564169381883,/rosControlledBubbleRob,0.241266980767,0.0,0.0,0.0,0.0,1.65741932392
1473349564208289703,262,1473349564207954518,/rosControlledBubbleRob,0.232003211975,0.0,0.0,0.0,0.0,1.02339041233
1473349564247068693,263,1473349564246870497,/rosControlledBubbleRob,0.289888769388,0.0,0.0,0.0,0.0,0.578147888184
1473349564289139760,264,1473349564288697367,/rosControlledBubbleRob,0.377350002527,0.0,0.0,0.0,0.0,0.96002727747
1473349564329116517,265,1473349564328701746,/rosControlledBubbleRob,0.457122057676,0.0,0.0,0.0,0.0,1.34326279163
1473349564374039315,266,1473349564373819723,/rosControlledBubbleRob,0.478177249432,0.0,0.0,0.0,0.0,1.48774456978
1473349564412164998,267,1473349564411837360,/rosControlledBubbleRob,0.544189214706,0.0,0.0,0.0,0.0,1.73346304893
1473349564453625246,268,1473349564451316933,/rosControlledBubbleRob,0.62476348877,0.0,0.0,0.0,0.0,2.08972358704
1473349564505912960,269,1473349564505692488,/rosControlledBubbleRob,0.660301685333,0.0,0.0,0.0,0.0,2.66521048546
1473349564559050196,270,1473349564558874390,/rosControlledBubbleRob,0.722220122814,0.0,0.0,0.0,0.0,2.76641106606
1473349564612359773,271,1473349564612008207,/rosControlledBubbleRob,0.744682431221,0.0,0.0,0.0,0.0,2.83788228035
1473349564664009195,272,1473349564663695797,/rosControlledBubbleRob,0.74597889185,0.0,0.0,0.0,0.0,3.05896401405
1473349564701894339,273,1473349564701552050,/rosControlledBubbleRob,0.725117206573,0.0,0.0,0.0,0.0,2.9977273941
1473349564739252662,274,1473349564738888761,/rosControlledBubbleRob,0.711235761642,0.0,0.0,0.0,0.0,2.9538295269
1473349564794211407,275,1473349564793880924,/rosControlledBubbleRob,0.699026107788,0.0,0.0,0.0,0.0,2.54336857796
1473349564850786705,276,1473349564850416759,/rosControlledBubbleRob,0.628974080086,0.0,0.0,0.0,0.0,1.92013335228
1473349564889712173,277,1473349564889488124,/rosControlledBubbleRob,0.593162596226,0.0,0.0,0.0,0.0,2.02430295944
1473349564949103897,278,1473349564948897990,/rosControlledBubbleRob,0.50311601162,0.0,0.0,0.0,0.0,2.72662210464
1473349565002011904,279,1473349565001812199,/rosControlledBubbleRob,0.418251425028,0.0,0.0,0.0,0.0,3.16994357109
1473349565061931001,280,1473349565061719126,/rosControlledBubbleRob,0.321876674891,0.0,0.0,0.0,0.0,3.67963886261
1473349565114683564,281,1473349565114454163,/rosControlledBubbleRob,0.175546362996,0.0,0.0,0.0,0.0,4.21826410294
1473349565152963988,282,1473349565152801142,/rosControlledBubbleRob,0.0670019686222,0.0,0.0,0.0,0.0,4.4504981041
1473349565191261324,283,1473349565191077993,/rosControlledBubbleRob,-0.0448290146887,0.0,0.0,0.0,0.0,4.41957044601
1473349565229582334,284,1473349565229310672,/rosControlledBubbleRob,-0.160836011171,0.0,0.0,0.0,0.0,4.36069488525
1473349565268414645,285,1473349565267777156,/rosControlledBubbleRob,-0.272288829088,0.0,0.0,0.0,0.0,4.3121752739
1473349565310080396,286,1473349565309807408,/rosControlledBubbleRob,-0.386026054621,0.0,0.0,0.0,0.0,4.08414077759
1473349565348551426,287,1473349565348177753,/rosControlledBubbleRob,-0.515535116196,0.0,0.0,0.0,0.0,3.78660345078
1473349565391062551,288,1473349565390808346,/rosControlledBubbleRob,-0.592710673809,0.0,0.0,0.0,0.0,3.24571609497
1473349565431083886,289,1473349565430872783,/rosControlledBubbleRob,-0.652058660984,0.0,0.0,0.0,0.0,2.7501206398
1473349565466684746,290,1473349565466470965,/rosControlledBubbleRob,-0.729292273521,0.0,0.0,0.0,0.0,2.12913942337
1473349565504524331,291,1473349565504300629,/rosControlledBubbleRob,-0.79526424408,0.0,0.0,0.0,0.0,1.47303950787
1473349565539948927,292,1473349565539615139,/rosControlledBubbleRob,-0.858675062656,0.0,0.0,0.0,0.0,0.892891049385
1473349565583385797,293,1473349565583164086,/rosControlledBubbleRob,-0.911722898483,0.0,0.0,0.0,0.0,0.634726762772
1473349565619212012,294,1473349565618936413,/rosControlledBubbleRob,-0.958035171032,0.0,0.0,0.0,0.0,0.262947589159
1473349565660140473,295,1473349565659899052,/rosControlledBubbleRob,-0.991299569607,0.0,0.0,0.0,0.0,0.0602713264525
1473349565698060127,296,1473349565697916674,/rosControlledBubbleRob,-1.00024569035,0.0,0.0,0.0,0.0,0.000647141656373
1473349565736596055,297,1473349565736372642,/rosControlledBubbleRob,-1.00025057793,0.0,0.0,0.0,0.0,0.000359933444997
1473349565773320454,298,1473349565772980171,/rosControlledBubbleRob,-0.948716521263,0.0,0.0,0.0,0.0,0.0156683921814
1473349565808302366,299,1473349565807941610,/rosControlledBubbleRob,-0.886537671089,0.0,0.0,0.0,0.0,0.198611065745
1473349565845253458,300,1473349565844971797,/rosControlledBubbleRob,-0.803660929203,0.0,0.0,0.0,0.0,0.427033931017
1473349565881692056,301,1473349565881387359,/rosControlledBubbleRob,-0.7355068326,0.0,0.0,0.0,0.0,0.432620108128
1473349565934968015,302,1473349565934705882,/rosControlledBubbleRob,-0.665496706963,0.0,0.0,0.0,0.0,0.431365430355
1473349565974179304,303,1473349565974010924,/rosControlledBubbleRob,-0.598954439163,0.0,0.0,0.0,0.0,0.420909255743
1473349566010293083,304,1473349566010098564,/rosControlledBubbleRob,-0.529407083988,0.0,0.0,0.0,0.0,0.406432181597
1473349566046885515,305,1473349566046669517,/rosControlledBubbleRob,-0.466714084148,0.0,0.0,0.0,0.0,0.387260288
1473349566086025453,306,1473349566085849581,/rosControlledBubbleRob,-0.39652171731,0.0,0.0,0.0,0.0,0.39095813036
1473349566120992457,307,1473349566120742131,/rosControlledBubbleRob,-0.328202724457,0.0,0.0,0.0,0.0,0.392723083496
1473349566172205404,308,1473349566171951152,/rosControlledBubbleRob,-0.259411484003,0.0,0.0,0.0,0.0,0.398223280907
1473349566225874445,309,1473349566225661597,/rosControlledBubbleRob,-0.181594565511,0.0,0.0,0.0,0.0,0.403290331364
1473349566270904033,310,1473349566270633834,/rosControlledBubbleRob,-0.104663304985,0.0,0.0,0.0,0.0,0.41939997673
1473349566311415967,311,1473349566311151167,/rosControlledBubbleRob,-0.0323430486023,0.0,0.0,0.0,0.0,0.355214715004
1473349566344531154,312,1473349566344236532,/rosControlledBubbleRob,0.0598559454083,0.0,0.0,0.0,0.0,0.123435430229
1473349566385471579,313,1473349566385035424,/rosControlledBubbleRob,0.111100107431,0.0,0.0,0.0,0.0,0.314390152693
1473349566421129450,314,1473349566420613623,/rosControlledBubbleRob,0.197685465217,0.0,0.0,0.0,0.0,0.399853825569
1473349566457933045,315,1473349566457577816,/rosControlledBubbleRob,0.272389888763,0.0,0.0,0.0,0.0,0.474687606096
1473349566503589980,316,1473349566503310183,/rosControlledBubbleRob,0.333547741175,0.0,0.0,0.0,0.0,0.585761785507
1473349566553214933,317,1473349566553022514,/rosControlledBubbleRob,0.402550458908,0.0,0.0,0.0,0.0,0.678740978241
1473349566602311488,318,1473349566602129729,/rosControlledBubbleRob,0.4677285254,0.0,0.0,0.0,0.0,0.801523983479
1473349566649539640,319,1473349566649214095,/rosControlledBubbleRob,0.530477523804,0.0,0.0,0.0,0.0,0.950058698654
1473349566699136951,320,1473349566698878713,/rosControlledBubbleRob,0.593118846416,0.0,0.0,0.0,0.0,1.12273359299
1473349566750434027,321,1473349566750147202,/rosControlledBubbleRob,0.646766722202,0.0,0.0,0.0,0.0,1.34422624111
1473349566788566632,322,1473349566788276980,/rosControlledBubbleRob,0.703549385071,0.0,0.0,0.0,0.0,1.57944452763
1473349566830856144,323,1473349566830638387,/rosControlledBubbleRob,0.757811367512,0.0,0.0,0.0,0.0,1.83682823181
1473349566883393067,324,1473349566883184504,/rosControlledBubbleRob,0.801042973995,0.0,0.0,0.0,0.0,1.85667479038
1473349566941054749,325,1473349566940859756,/rosControlledBubbleRob,0.827991902828,0.0,0.0,0.0,0.0,1.69585061073
1473349566995216485,326,1473349566994956444,/rosControlledBubbleRob,0.866488873959,0.0,0.0,0.0,0.0,1.60777759552
1473349567051285081,327,1473349567050883540,/rosControlledBubbleRob,0.903346419334,0.0,0.0,0.0,0.0,1.48828279972
1473349567105605973,328,1473349567104999881,/rosControlledBubbleRob,0.904822826385,0.0,0.0,0.0,0.0,1.44303965569
1473349567142490887,329,1473349567142275469,/rosControlledBubbleRob,0.911991000175,0.0,0.0,0.0,0.0,1.38063061237
1473349567192141490,330,1473349567191903966,/rosControlledBubbleRob,0.934521734715,0.0,0.0,0.0,0.0,1.15887641907
1473349567230649929,331,1473349567230463023,/rosControlledBubbleRob,0.954412817955,0.0,0.0,0.0,0.0,0.870130956173
1473349567267546222,332,1473349567267302503,/rosControlledBubbleRob,0.966831147671,0.0,0.0,0.0,0.0,0.63714236021
1473349567304481495,333,1473349567304291525,/rosControlledBubbleRob,0.903737306595,0.0,0.0,0.0,0.0,0.743790328503
1473349567342717699,334,1473349567342395993,/rosControlledBubbleRob,0.833153486252,0.0,0.0,0.0,0.0,0.919625818729
1473349567383172647,335,1473349567382934794,/rosControlledBubbleRob,0.763917863369,0.0,0.0,0.0,0.0,1.11268270016
1473349567422574366,336,1473349567422268469,/rosControlledBubbleRob,0.686951398849,0.0,0.0,0.0,0.0,1.32733404636
1473349567459770339,337,1473349567459512653,/rosControlledBubbleRob,0.612058162689,0.0,0.0,0.0,0.0,1.53843474388
1473349567500740568,338,1473349567500501052,/rosControlledBubbleRob,0.532150864601,0.0,0.0,0.0,0.0,1.74181461334
1473349567539988426,339,1473349567539693570,/rosControlledBubbleRob,0.44661334157,0.0,0.0,0.0,0.0,1.90743601322
1473349567578626307,340,1473349567578263204,/rosControlledBubbleRob,0.356377989054,0.0,0.0,0.0,0.0,2.02611875534
1473349567616294114,341,1473349567615997457,/rosControlledBubbleRob,0.271082043648,0.0,0.0,0.0,0.0,2.11187982559
1473349567660056107,342,1473349567659800871,/rosControlledBubbleRob,0.214104562998,0.0,0.0,0.0,0.0,2.00634598732
1473349567698355324,343,1473349567697794696,/rosControlledBubbleRob,0.177921965718,0.0,0.0,0.0,0.0,1.67891538143
1473349567752518947,344,1473349567752221050,/rosControlledBubbleRob,0.141868978739,0.0,0.0,0.0,0.0,1.34684562683
1473349567805733334,345,1473349567805543215,/rosControlledBubbleRob,0.125449508429,0.0,0.0,0.0,0.0,0.578148543835
1473349567860598194,346,1473349567860272727,/rosControlledBubbleRob,0.168284624815,0.0,0.0,0.0,0.0,0.610188126564
1473349567905740617,347,1473349567905366629,/rosControlledBubbleRob,0.238380908966,0.0,0.0,0.0,0.0,0.769892573357
1473349567944610686,348,1473349567944363702,/rosControlledBubbleRob,0.303303509951,0.0,0.0,0.0,0.0,0.981114149094
1473349567984959686,349,1473349567984730377,/rosControlledBubbleRob,0.391296416521,0.0,0.0,0.0,0.0,1.15364825726
1473349568024068921,350,1473349568023727334,/rosControlledBubbleRob,0.482770293951,0.0,0.0,0.0,0.0,1.05336034298
1473349568062766728,351,1473349568062174130,/rosControlledBubbleRob,0.532020390034,0.0,0.0,0.0,0.0,1.54598772526
1473349568103007399,352,1473349568102790584,/rosControlledBubbleRob,0.480088353157,0.0,0.0,0.0,0.0,1.75226485729
1473349568142914363,353,1473349568142634878,/rosControlledBubbleRob,0.385789990425,0.0,0.0,0.0,0.0,1.91093659401
1473349568184172645,354,1473349568183440823,/rosControlledBubbleRob,0.331551849842,0.0,0.0,0.0,0.0,2.15453958511
1473349568222939816,355,1473349568222717131,/rosControlledBubbleRob,0.24372382462,0.0,0.0,0.0,0.0,2.16763806343
1473349568262187232,356,1473349568261961645,/rosControlledBubbleRob,0.201429113746,0.0,0.0,0.0,0.0,1.973913908
1473349568305397904,357,1473349568305127050,/rosControlledBubbleRob,0.117757089436,0.0,0.0,0.0,0.0,2.12393712997
1473349568356137240,358,1473349568355948414,/rosControlledBubbleRob,0.0164075084031,0.0,0.0,0.0,0.0,2.27324104309
1473349568415008795,359,1473349568414605492,/rosControlledBubbleRob,-0.0527950078249,0.0,0.0,0.0,0.0,2.23102068901
1473349568453825917,360,1473349568453482613,/rosControlledBubbleRob,-0.122798442841,0.0,0.0,0.0,0.0,2.15497207642
1473349568491559738,361,1473349568491246217,/rosControlledBubbleRob,-0.191865250468,0.0,0.0,0.0,0.0,2.09806680679
1473349568532284124,362,1473349568531888838,/rosControlledBubbleRob,-0.270484387875,0.0,0.0,0.0,0.0,1.97604858875
1473349568568339171,363,1473349568568184026,/rosControlledBubbleRob,-0.357466161251,0.0,0.0,0.0,0.0,1.77226281166
1473349568623198764,364,1473349568622790854,/rosControlledBubbleRob,-0.451509267092,0.0,0.0,0.0,0.0,1.55201351643
1473349568660961304,365,1473349568660668057,/rosControlledBubbleRob,-0.534858584404,0.0,0.0,0.0,0.0,1.31989872456
1473349568700168970,366,1473349568699923463,/rosControlledBubbleRob,-0.612780690193,0.0,0.0,0.0,0.0,1.05384457111
1473349568737247079,367,1473349568737038165,/rosControlledBubbleRob,-0.682637155056,0.0,0.0,0.0,0.0,0.82581114769
1473349568779188074,368,1473349568778884048,/rosControlledBubbleRob,-0.749990344048,0.0,0.0,0.0,0.0,0.628246724606
1473349568816827932,369,1473349568816449018,/rosControlledBubbleRob,-0.815905094147,0.0,0.0,0.0,0.0,0.498313248158
1473349568856204686,370,1473349568855980002,/rosControlledBubbleRob,-0.882027745247,0.0,0.0,0.0,0.0,0.378887295723
1473349568894702642,371,1473349568894211555,/rosControlledBubbleRob,-0.950663089752,0.0,0.0,0.0,0.0,0.271654605865
1473349568933369414,372,1473349568933104964,/rosControlledBubbleRob,-0.98422896862,0.0,0.0,0.0,0.0,0.158811151981
1473349568970137184,373,1473349568969325616,/rosControlledBubbleRob,-0.998902976513,0.0,0.0,0.0,0.0,0.0129822334275
1473349569027703302,374,1473349569027403939,/rosControlledBubbleRob,-1.00025475025,0.0,0.0,0.0,0.0,0.000162247015396
1473349569080225851,375,1473349569079974085,/rosControlledBubbleRob,-1.00028455257,0.0,0.0,0.0,0.0,0.000177510766662
1473349569135424924,376,1473349569135179616,/rosControlledBubbleRob,-0.999338209629,0.0,0.0,0.0,0.0,-0.0109015377238
1473349569176249309,377,1473349569176064668,/rosControlledBubbleRob,-1.00016605854,0.0,0.0,0.0,0.0,-0.000611255527474
1473349569215684830,378,1473349569215484197,/rosControlledBubbleRob,-1.00018119812,0.0,0.0,0.0,0.0,9.90219050436e-05
1473349569252537840,379,1473349569252256414,/rosControlledBubbleRob,-1.00015556812,0.0,0.0,0.0,0.0,0.000664712453727
1473349569291974462,380,1473349569291614871,/rosControlledBubbleRob,-1.00029790401,0.0,0.0,0.0,0.0,0.000159403905855
1473349569343441628,381,1473349569343157840,/rosControlledBubbleRob,-1.00032126904,0.0,0.0,0.0,0.0,0.00107710424345
1473349569396814004,382,1473349569396585776,/rosControlledBubbleRob,-1.00027453899,0.0,0.0,0.0,0.0,0.000735621084459
1473349569432923464,383,1473349569432566597,/rosControlledBubbleRob,-1.00019621849,0.0,0.0,0.0,0.0,0.000800365000032
1473349569471745605,384,1473349569471547143,/rosControlledBubbleRob,-0.998692154884,0.0,0.0,0.0,0.0,-0.000612059608102
1473349569510130596,385,1473349569509861029,/rosControlledBubbleRob,-1.00024878979,0.0,0.0,0.0,0.0,0.000408135005273
1473349569546121315,386,1473349569545850461,/rosControlledBubbleRob,-1.00022792816,0.0,0.0,0.0,0.0,0.000611090741586
1473349569581932789,387,1473349569581593896,/rosControlledBubbleRob,-1.00019872189,0.0,0.0,0.0,0.0,0.000721780350432
1473349569621963925,388,1473349569621721076,/rosControlledBubbleRob,-0.999182462692,0.0,0.0,0.0,0.0,0.0119227059186
1473349569658706780,389,1473349569658481187,/rosControlledBubbleRob,-1.00025200844,0.0,0.0,0.0,0.0,0.000378635944799
1473349569697164859,390,1473349569696798842,/rosControlledBubbleRob,-1.00015819073,0.0,0.0,0.0,0.0,1.45490012073e-05
1473349569736941787,391,1473349569736752829,/rosControlledBubbleRob,-1.0002310276,0.0,0.0,0.0,0.0,-7.6970027294e-05
1473349569774155651,392,1473349569773993620,/rosControlledBubbleRob,-0.999400675297,0.0,0.0,0.0,0.0,0.00979033205658
1473349569811731462,393,1473349569811434735,/rosControlledBubbleRob,-1.00029838085,0.0,0.0,0.0,0.0,0.000121150143968
1473349569848283770,394,1473349569847912159,/rosControlledBubbleRob,-0.96138972044,0.0,0.0,0.0,0.0,-0.0704379603267
1473349569902460461,395,1473349569902209092,/rosControlledBubbleRob,-0.881019353867,0.0,0.0,0.0,0.0,-0.223179683089
1473349569959738668,396,1473349569959459443,/rosControlledBubbleRob,-0.808848261833,0.0,0.0,0.0,0.0,-0.233576387167
1473349570013197877,397,1473349570012714910,/rosControlledBubbleRob,-0.734566271305,0.0,0.0,0.0,0.0,-0.228763520718
1473349570057124645,398,1473349570056738515,/rosControlledBubbleRob,-0.667132198811,0.0,0.0,0.0,0.0,-0.221002981067
1473349570092907405,399,1473349570092529322,/rosControlledBubbleRob,-0.595891535282,0.0,0.0,0.0,0.0,-0.204172715545
1473349570130152064,400,1473349570129938808,/rosControlledBubbleRob,-0.530151724815,0.0,0.0,0.0,0.0,-0.152389854193
1473349570185405172,401,1473349570185213903,/rosControlledBubbleRob,-0.460051208735,0.0,0.0,0.0,0.0,-0.138191565871
1473349570240185433,402,1473349570239922398,/rosControlledBubbleRob,-0.39275687933,0.0,0.0,0.0,0.0,-0.159650117159
1473349570294725792,403,1473349570294306746,/rosControlledBubbleRob,-0.320932537317,0.0,0.0,0.0,0.0,-0.184175848961
1473349570339582619,404,1473349570339280918,/rosControlledBubbleRob,-0.249211013317,0.0,0.0,0.0,0.0,-0.222462818027
1473349570375851874,405,1473349570375542234,/rosControlledBubbleRob,-0.177613854408,0.0,0.0,0.0,0.0,-0.270018815994
1473349570416334561,406,1473349570416133020,/rosControlledBubbleRob,-0.0913390144706,0.0,0.0,0.0,0.0,-0.409813553095
1473349570453627279,407,1473349570453344639,/rosControlledBubbleRob,-0.0164817236364,0.0,0.0,0.0,0.0,-0.438764542341
1473349570493046296,408,1473349570492681277,/rosControlledBubbleRob,0.049683060497,0.0,0.0,0.0,0.0,-0.428095072508
1473349570529896834,409,1473349570529348809,/rosControlledBubbleRob,0.124492198229,0.0,0.0,0.0,0.0,-0.435808360577
1473349570567585149,410,1473349570567233311,/rosControlledBubbleRob,0.190846979618,0.0,0.0,0.0,0.0,-0.420196413994
1473349570606280303,411,1473349570606005039,/rosControlledBubbleRob,0.263832032681,0.0,0.0,0.0,0.0,-0.502112805843
1473349570644245978,412,1473349570644018836,/rosControlledBubbleRob,0.32495239377,0.0,0.0,0.0,0.0,-0.591732263565
1473349570687164091,413,1473349570686706198,/rosControlledBubbleRob,0.395527333021,0.0,0.0,0.0,0.0,-0.657320082188
1473349570742359171,414,1473349570742069174,/rosControlledBubbleRob,0.462583631277,0.0,0.0,0.0,0.0,-0.74359858036
1473349570782100581,415,1473349570781778359,/rosControlledBubbleRob,0.528244018555,0.0,0.0,0.0,0.0,-0.844476282597
1473349570822232082,416,1473349570821811462,/rosControlledBubbleRob,0.594171643257,0.0,0.0,0.0,0.0,-0.97523611784
1473349570861858387,417,1473349570861402849,/rosControlledBubbleRob,0.653849124908,0.0,0.0,0.0,0.0,-1.11048185825
1473349570905129561,418,1473349570904910707,/rosControlledBubbleRob,0.714673638344,0.0,0.0,0.0,0.0,-1.22719192505
1473349570942649966,419,1473349570942303599,/rosControlledBubbleRob,0.777032911777,0.0,0.0,0.0,0.0,-1.31571555138
1473349570986663482,420,1473349570986442002,/rosControlledBubbleRob,0.767680227757,0.0,0.0,0.0,0.0,-1.50177574158
1473349571024624410,421,1473349571024285149,/rosControlledBubbleRob,0.695699989796,0.0,0.0,0.0,0.0,-1.85603535175
1473349571065940487,422,1473349571065738988,/rosControlledBubbleRob,0.615011811256,0.0,0.0,0.0,0.0,-2.39635467529
1473349571107918428,423,1473349571107609643,/rosControlledBubbleRob,0.521141052246,0.0,0.0,0.0,0.0,-2.85264611244
1473349571151459495,424,1473349571151172419,/rosControlledBubbleRob,0.438632100821,0.0,0.0,0.0,0.0,-3.15878009796
1473349571192904370,425,1473349571192675699,/rosControlledBubbleRob,0.350613594055,0.0,0.0,0.0,0.0,-3.44715833664
1473349571232084937,426,1473349571231861375,/rosControlledBubbleRob,0.281576305628,0.0,0.0,0.0,0.0,-2.93844127655
1473349571268757655,427,1473349571268526818,/rosControlledBubbleRob,0.237456515431,0.0,0.0,0.0,0.0,-2.39045643806
1473349571307380952,428,1473349571307013253,/rosControlledBubbleRob,0.210854932666,0.0,0.0,0.0,0.0,-2.11012864113
1473349571345774085,429,1473349571345395840,/rosControlledBubbleRob,0.15148344636,0.0,0.0,0.0,0.0,-1.53763973713
1473349571384269877,430,1473349571384002159,/rosControlledBubbleRob,0.119587413967,0.0,0.0,0.0,0.0,-1.19071376324
1473349571421290388,431,1473349571421069609,/rosControlledBubbleRob,0.0759465992451,0.0,0.0,0.0,0.0,-0.709453880787
1473349571460371343,432,1473349571460175472,/rosControlledBubbleRob,0.0329675450921,0.0,0.0,0.0,0.0,-0.305322676897
1473349571498577359,433,1473349571498350331,/rosControlledBubbleRob,0.0715599581599,0.0,0.0,0.0,0.0,-0.255162149668
1473349571538104740,434,1473349571537595061,/rosControlledBubbleRob,0.142411202192,0.0,0.0,0.0,0.0,-0.202173367143
1473349571578393009,435,1473349571578155848,/rosControlledBubbleRob,0.218146696687,0.0,0.0,0.0,0.0,-0.124985955656
1473349571618919001,436,1473349571618597504,/rosControlledBubbleRob,0.290556967258,0.0,0.0,0.0,0.0,-0.158883184195
1473349571657749174,437,1473349571657390772,/rosControlledBubbleRob,0.361730068922,0.0,0.0,0.0,0.0,-0.188327088952
1473349571697342453,438,1473349571696840654,/rosControlledBubbleRob,0.432372272015,0.0,0.0,0.0,0.0,-0.257334262133
1473349571737779649,439,1473349571737560407,/rosControlledBubbleRob,0.505692303181,0.0,0.0,0.0,0.0,-0.305986702442
1473349571778760006,440,1473349571778284360,/rosControlledBubbleRob,0.589136123657,0.0,0.0,0.0,0.0,-0.395918697119
1473349571821764508,441,1473349571821477457,/rosControlledBubbleRob,0.667321801186,0.0,0.0,0.0,0.0,-0.675191521645
1473349571862436928,442,1473349571862178062,/rosControlledBubbleRob,0.706719338894,0.0,0.0,0.0,0.0,-0.505358457565
1473349571902546636,443,1473349571902281798,/rosControlledBubbleRob,0.781876325607,0.0,0.0,0.0,0.0,-0.59083378315
1473349571940670062,444,1473349571940305595,/rosControlledBubbleRob,0.853894650936,0.0,0.0,0.0,0.0,-0.841341793537
1473349571979599796,445,1473349571979087803,/rosControlledBubbleRob,0.883368372917,0.0,0.0,0.0,0.0,-0.797859609127
1473349572022539291,446,1473349572022295667,/rosControlledBubbleRob,0.809763967991,0.0,0.0,0.0,0.0,-1.08482050896
1473349572061081939,447,1473349572060862988,/rosControlledBubbleRob,0.75024330616,0.0,0.0,0.0,0.0,-1.11274456978
1473349572101003263,448,1473349572100768071,/rosControlledBubbleRob,0.674531280994,0.0,0.0,0.0,0.0,-1.43001163006
1473349572144337802,449,1473349572144102341,/rosControlledBubbleRob,0.583239197731,0.0,0.0,0.0,0.0,-1.62325942516
1473349572187602760,450,1473349572187385477,/rosControlledBubbleRob,0.511570930481,0.0,0.0,0.0,0.0,-2.02800345421
1473349572226453247,451,1473349572226221598,/rosControlledBubbleRob,0.443912953138,0.0,0.0,0.0,0.0,-2.23974061012
1473349572265896927,452,1473349572265644901,/rosControlledBubbleRob,0.352093398571,0.0,0.0,0.0,0.0,-2.52110314369
1473349572310909471,453,1473349572310328353,/rosControlledBubbleRob,0.273837596178,0.0,0.0,0.0,0.0,-2.78381276131
1473349572353225121,454,1473349572353034331,/rosControlledBubbleRob,0.166810855269,0.0,0.0,0.0,0.0,-3.14743804932
1473349572391633495,455,1473349572391439551,/rosControlledBubbleRob,0.0718418061733,0.0,0.0,0.0,0.0,-3.2484061718
1473349572430719817,456,1473349572430495999,/rosControlledBubbleRob,-0.0208376385272,0.0,0.0,0.0,0.0,-3.62334823608
1473349572469747553,457,1473349572469543875,/rosControlledBubbleRob,-0.130989149213,0.0,0.0,0.0,0.0,-3.83547830582
1473349572507043774,458,1473349572506754017,/rosControlledBubbleRob,-0.243814483285,0.0,0.0,0.0,0.0,-3.59610557556
1473349572547800053,459,1473349572547544396,/rosControlledBubbleRob,-0.30846336484,0.0,0.0,0.0,0.0,-3.32929730415
1473349572588866883,460,1473349572588466761,/rosControlledBubbleRob,-0.377163797617,0.0,0.0,0.0,0.0,-2.78076338768
1473349572625211287,461,1473349572624849701,/rosControlledBubbleRob,-0.484263658524,0.0,0.0,0.0,0.0,-2.21350693703
1473349572662825831,462,1473349572662501971,/rosControlledBubbleRob,-0.559297263622,0.0,0.0,0.0,0.0,-1.94285607338
1473349572700154401,463,1473349572699876937,/rosControlledBubbleRob,-0.623588621616,0.0,0.0,0.0,0.0,-1.82806003094
1473349572736610583,464,1473349572736305162,/rosControlledBubbleRob,-0.729049384594,0.0,0.0,0.0,0.0,-1.92073738575
1473349572772228873,465,1473349572771732349,/rosControlledBubbleRob,-0.794466853142,0.0,0.0,0.0,0.0,-1.50273537636
1473349572808813304,466,1473349572808085533,/rosControlledBubbleRob,-0.847732186317,0.0,0.0,0.0,0.0,-1.09359872341
1473349572847863608,467,1473349572847672147,/rosControlledBubbleRob,-0.901149272919,0.0,0.0,0.0,0.0,-0.741081953049
1473349572883043914,468,1473349572882724381,/rosControlledBubbleRob,-0.950059235096,0.0,0.0,0.0,0.0,-0.420025736094
1473349572922038509,469,1473349572921783918,/rosControlledBubbleRob,-0.931792974472,0.0,0.0,0.0,0.0,-0.0933590978384
1473349572955798878,470,1473349572955617018,/rosControlledBubbleRob,-0.825795829296,0.0,0.0,0.0,0.0,0.0125387636945
1473349572992576332,471,1473349572992370948,/rosControlledBubbleRob,-0.76480281353,0.0,0.0,0.0,0.0,0.170991674066
1473349573029593446,472,1473349573029256196,/rosControlledBubbleRob,-0.689457595348,0.0,0.0,0.0,0.0,0.0381795279682
1473349573065378025,473,1473349573065122669,/rosControlledBubbleRob,-0.60857129097,0.0,0.0,0.0,0.0,0.0450613088906
1473349573103378857,474,1473349573103090996,/rosControlledBubbleRob,-0.562769174576,0.0,0.0,0.0,0.0,-0.110974572599
1473349573140164962,475,1473349573139726284,/rosControlledBubbleRob,-0.510616242886,0.0,0.0,0.0,0.0,0.175642505288
1473349573175034260,476,1473349573174816091,/rosControlledBubbleRob,-0.432425737381,0.0,0.0,0.0,0.0,0.180221945047
1473349573214376166,477,1473349573214074918,/rosControlledBubbleRob,-0.362379819155,0.0,0.0,0.0,0.0,0.233942270279
1473349573248530654,478,1473349573248116492,/rosControlledBubbleRob,-0.288845866919,0.0,0.0,0.0,0.0,0.26833871007
1473349573286151272,479,1473349573285974894,/rosControlledBubbleRob,-0.226924613118,0.0,0.0,0.0,0.0,0.259193062782
1473349573339368807,480,1473349573339142361,/rosControlledBubbleRob,-0.157347336411,0.0,0.0,0.0,0.0,0.289548277855
1473349573392188000,481,1473349573391939812,/rosControlledBubbleRob,-0.0831752493978,0.0,0.0,0.0,0.0,0.399022340775
1473349573430656644,482,1473349573430412480,/rosControlledBubbleRob,-0.0217057894915,0.0,0.0,0.0,0.0,0.400637686253
1473349573468042394,483,1473349573467723904,/rosControlledBubbleRob,0.0272511597723,0.0,0.0,0.0,0.0,0.272343873978
1473349573503024892,484,1473349573502741014,/rosControlledBubbleRob,0.0959535464644,0.0,0.0,0.0,0.0,0.377099692822
1473349573555755532,485,1473349573555546387,/rosControlledBubbleRob,0.162400960922,0.0,0.0,0.0,0.0,0.495999842882
1473349573604607172,486,1473349573604435291,/rosControlledBubbleRob,0.231880605221,0.0,0.0,0.0,0.0,0.508106648922
1473349573656045484,487,1473349573655841330,/rosControlledBubbleRob,0.305365175009,0.0,0.0,0.0,0.0,0.64655983448
1473349573707004684,488,1473349573706785202,/rosControlledBubbleRob,0.37314131856,0.0,0.0,0.0,0.0,0.716484487057
1473349573757829284,489,1473349573757583495,/rosControlledBubbleRob,0.437795221806,0.0,0.0,0.0,0.0,0.742609024048
1473349573805768014,490,1473349573805563947,/rosControlledBubbleRob,0.504496693611,0.0,0.0,0.0,0.0,0.779677093029
1473349573860515749,491,1473349573860053533,/rosControlledBubbleRob,0.578165471554,0.0,0.0,0.0,0.0,0.992437839508
1473349573896432926,492,1473349573896157450,/rosControlledBubbleRob,0.646833837032,0.0,0.0,0.0,0.0,1.36206197739
1473349573935150839,493,1473349573934968726,/rosControlledBubbleRob,0.706775248051,0.0,0.0,0.0,0.0,1.44335281849
1473349573970421418,494,1473349573970143712,/rosControlledBubbleRob,0.7741112113,0.0,0.0,0.0,0.0,1.63026368618
1473349574008597083,495,1473349574008206173,/rosControlledBubbleRob,0.756721615791,0.0,0.0,0.0,0.0,1.93696916103
1473349574045617919,496,1473349574045340516,/rosControlledBubbleRob,0.675662100315,0.0,0.0,0.0,0.0,2.51975655556
1473349574082352307,497,1473349574081998034,/rosControlledBubbleRob,0.576119661331,0.0,0.0,0.0,0.0,3.16469502449
1473349574120230436,498,1473349574120000894,/rosControlledBubbleRob,0.470838367939,0.0,0.0,0.0,0.0,3.68928694725
1473349574164137984,499,1473349574163681681,/rosControlledBubbleRob,0.385884612799,0.0,0.0,0.0,0.0,3.8804526329
1473349574200572415,500,1473349574200248698,/rosControlledBubbleRob,0.331411451101,0.0,0.0,0.0,0.0,3.38196969032
1473349574240650330,501,1473349574240378989,/rosControlledBubbleRob,0.268041342497,0.0,0.0,0.0,0.0,2.75303459167
1473349574283398509,502,1473349574283141461,/rosControlledBubbleRob,0.214228495955,0.0,0.0,0.0,0.0,2.19448804855
1473349574325631324,503,1473349574325439967,/rosControlledBubbleRob,0.177048027515,0.0,0.0,0.0,0.0,1.84947967529
1473349574364460546,504,1473349574364191555,/rosControlledBubbleRob,0.135947987437,0.0,0.0,0.0,0.0,1.53139793873
1473349574403726642,505,1473349574403504417,/rosControlledBubbleRob,0.0994603186846,0.0,0.0,0.0,0.0,1.14319956303
1473349574442728454,506,1473349574442464220,/rosControlledBubbleRob,0.0639677271247,0.0,0.0,0.0,0.0,0.710631430149
1473349574481129963,507,1473349574480889866,/rosControlledBubbleRob,0.028126006946,0.0,0.0,0.0,0.0,0.234527230263
1473349574524926333,508,1473349574524659525,/rosControlledBubbleRob,0.00345717160963,0.0,0.0,0.0,0.0,0.0220360513777
1473349574570695338,509,1473349574570381516,/rosControlledBubbleRob,-0.000325732893543,0.0,0.0,0.0,0.0,0.000318299571518
1473349574608278325,510,1473349574608026319,/rosControlledBubbleRob,-0.000461677322164,0.0,0.0,0.0,0.0,0.000494126754347
1473349574651327871,511,1473349574651030568,/rosControlledBubbleRob,-0.000485597440274,0.0,0.0,0.0,0.0,0.000414075359004
1473349574693650935,512,1473349574693314728,/rosControlledBubbleRob,-0.000428942003055,0.0,0.0,0.0,0.0,0.000392633024603
1473349574731817238,513,1473349574731607639,/rosControlledBubbleRob,-0.000410978100263,0.0,0.0,0.0,0.0,0.000218711837078
1473349574769949310,514,1473349574769761414,/rosControlledBubbleRob,-0.00043156274478,0.0,0.0,0.0,0.0,0.000282562337816
1473349574830311239,515,1473349574830120634,/rosControlledBubbleRob,-0.000418554380303,0.0,0.0,0.0,0.0,0.00039549198118
1473349574885029887,516,1473349574884849292,/rosControlledBubbleRob,-0.000481023074826,0.0,0.0,0.0,0.0,0.00104686256964
1473349574925511746,517,1473349574925132445,/rosControlledBubbleRob,-0.000463154457975,0.0,0.0,0.0,0.0,0.000908202084247
1473349574968293241,518,1473349574968100629,/rosControlledBubbleRob,-0.000477639929159,0.0,0.0,0.0,0.0,0.000855787482578
1473349575010040710,519,1473349575009606812,/rosControlledBubbleRob,-0.000488885270897,0.0,0.0,0.0,0.0,0.00082338572247
1473349575049393350,520,1473349575049197913,/rosControlledBubbleRob,-0.000477925845189,0.0,0.0,0.0,0.0,0.000809090852272
1473349575086988631,521,1473349575086690196,/rosControlledBubbleRob,-0.000442188611487,0.0,0.0,0.0,0.0,0.000846257549711
1473349575127483684,522,1473349575127195919,/rosControlledBubbleRob,-0.000440330273705,0.0,0.0,0.0,0.0,0.000789554498624
1473349575187990236,523,1473349575187553087,/rosControlledBubbleRob,-0.000447048863862,0.0,0.0,0.0,0.0,-9.52992763814e-07
1473349575242310556,524,1473349575241963901,/rosControlledBubbleRob,-0.000442760414444,0.0,0.0,0.0,0.0,0.000175350665813
1473349575284591754,525,1473349575284394862,/rosControlledBubbleRob,-0.000456245237729,0.0,0.0,0.0,0.0,0.00040931039257
1473349575325971325,526,1473349575325755051,/rosControlledBubbleRob,-0.00046162965009,0.0,0.0,0.0,0.0,0.000327829504386
1473349575370949687,527,1473349575370728563,/rosControlledBubbleRob,-0.00042160396697,0.0,0.0,0.0,0.0,0.000526052026544
1473349575408984281,528,1473349575408449629,/rosControlledBubbleRob,-0.000384532555472,0.0,0.0,0.0,0.0,0.000490791280754
1473349575446742366,529,1473349575446474487,/rosControlledBubbleRob,-0.00038129236782,0.0,0.0,0.0,0.0,0.000516522093676
1473349575505147301,530,1473349575504844669,/rosControlledBubbleRob,-0.000310532661388,0.0,0.0,0.0,0.0,0.000427417253377
1473349575551141810,531,1473349575550785933,/rosControlledBubbleRob,-0.000339170102961,0.0,0.0,0.0,0.0,0.000590855488554
1473349575587854175,532,1473349575587650498,/rosControlledBubbleRob,-0.000348271190887,0.0,0.0,0.0,0.0,0.00038929755101
1473349575633643907,533,1473349575633261322,/rosControlledBubbleRob,-0.000365472689737,0.0,0.0,0.0,0.0,0.000324970518705
1473349575671908967,534,1473349575671678225,/rosControlledBubbleRob,-0.000370523572201,0.0,0.0,0.0,0.0,0.000444094621344
1473349575708612722,535,1473349575708371092,/rosControlledBubbleRob,-0.000396159070078,0.0,0.0,0.0,0.0,-6.76624840708e-05
1473349575746912374,536,1473349575746582688,/rosControlledBubbleRob,-0.000466680532554,0.0,0.0,0.0,0.0,-0.000528910954017
1473349575789810190,537,1473349575789499077,/rosControlledBubbleRob,-0.00041412297287,0.0,0.0,0.0,0.0,-0.000273032434052
1473349575869489099,538,1473349575869312276,/rosControlledBubbleRob,-0.000377289805328,0.0,0.0,0.0,0.0,-0.000425987760536
1473349575926692773,539,1473349575926009239,/rosControlledBubbleRob,-0.000356562202796,0.0,0.0,0.0,0.0,-0.000160579278599
1473349575967545606,540,1473349575967345027,/rosControlledBubbleRob,-0.000349795969669,0.0,0.0,0.0,0.0,-0.000184404096217
1473349576028354155,541,1473349576027023076,/rosControlledBubbleRob,-0.000431991589721,0.0,0.0,0.0,0.0,0.000246825133217
1473349576066423369,542,1473349576066076246,/rosControlledBubbleRob,-0.000429037318099,0.0,0.0,0.0,0.0,0.000280179869151
1473349576105362114,543,1473349576105085759,/rosControlledBubbleRob,-0.00042665482033,0.0,0.0,0.0,0.0,7.43334312574e-05
1473349576146236145,544,1473349576145949373,/rosControlledBubbleRob,-0.000369904126273,0.0,0.0,0.0,0.0,0.000260643515503
1473349576183034551,545,1473349576182748653,/rosControlledBubbleRob,-0.000377432763344,0.0,0.0,0.0,0.0,0.000603720895015
1473349576219290344,546,1473349576219027562,/rosControlledBubbleRob,-0.00037905285717,0.0,0.0,0.0,0.0,0.000745716853999
1473349576254743431,547,1473349576254489972,/rosControlledBubbleRob,-0.000426178332418,0.0,0.0,0.0,0.0,0.00054225284839
1473349576290271793,548,1473349576289956271,/rosControlledBubbleRob,-0.00042551124352,0.0,0.0,0.0,0.0,0.00018773956981
1473349576328660145,549,1473349576328353203,/rosControlledBubbleRob,-0.000451813830296,0.0,0.0,0.0,0.0,-0.000206799420994
1473349576366848897,550,1473349576366642387,/rosControlledBubbleRob,-0.000479021779029,0.0,0.0,0.0,0.0,-0.000533199461643
1473349576405914123,551,1473349576405692450,/rosControlledBubbleRob,-0.000438281334937,0.0,0.0,0.0,0.0,-0.000629928195849
1473349576461062056,552,1473349576460383315,/rosControlledBubbleRob,-0.000420126831159,0.0,0.0,0.0,0.0,-0.000502703653183
1473349576504062557,553,1473349576503826304,/rosControlledBubbleRob,-0.000425797130447,0.0,0.0,0.0,0.0,-0.000587996502873
1473349576547711822,554,1473349576547471214,/rosControlledBubbleRob,-0.000455244618934,0.0,0.0,0.0,0.0,-0.000398350966861
1473349576591061010,555,1473349576590694915,/rosControlledBubbleRob,-0.000477449328173,0.0,0.0,0.0,0.0,0.000387868058169
1473349576630391502,556,1473349576629981632,/rosControlledBubbleRob,-0.000471302540973,0.0,0.0,0.0,0.0,0.000377861637389
1473349576672403229,557,1473349576672229615,/rosControlledBubbleRob,-0.000405831931857,0.0,0.0,0.0,0.0,0.000235865707509
1473349576709617679,558,1473349576709276660,/rosControlledBubbleRob,-0.000437900132965,0.0,0.0,0.0,0.0,0.000433611712651
1473349576752495005,559,1473349576752317501,/rosControlledBubbleRob,-0.00039658791502,0.0,0.0,0.0,0.0,0.000292092270683
1473349576790034359,560,1473349576789769452,/rosControlledBubbleRob,-0.000337740610121,0.0,0.0,0.0,0.0,7.62394192861e-05
1473349576833001466,561,1473349576832785027,/rosControlledBubbleRob,-0.000448668957688,0.0,0.0,0.0,0.0,0.000790030986536
1473349576869376293,562,1473349576869064574,/rosControlledBubbleRob,-0.000451718544355,0.0,0.0,0.0,0.0,0.000626116234343
1473349576911649676,563,1473349576911161063,/rosControlledBubbleRob,-0.000478974136058,0.0,0.0,0.0,0.0,0.000595620484091
1473349576964442853,564,1473349576964081540,/rosControlledBubbleRob,-0.000496366235893,0.0,0.0,0.0,0.0,9.38697849051e-05
1473349577020574969,565,1473349577020260529,/rosControlledBubbleRob,-0.000484549120301,0.0,0.0,0.0,0.0,-0.000150096355355
1473349577059703278,566,1473349577059372868,/rosControlledBubbleRob,-0.000439806113718,0.0,0.0,0.0,0.0,-0.000196316512302
1473349577099679332,567,1473349577099265604,/rosControlledBubbleRob,-0.000412074034102,0.0,0.0,0.0,0.0,-0.000208705416298
1473349577138401863,568,1473349577138045324,/rosControlledBubbleRob,-0.000371524190996,0.0,0.0,0.0,0.0,0.000216805856326
