%time,field.header.seq,field.header.stamp,field.header.frame_id,field.twist.linear.x,field.twist.linear.y,field.twist.linear.z,field.twist.angular.x,field.twist.angular.y,field.twist.angular.z
1473349212530100418,164,1473349212529762034,/rosControlledBubbleRob,0.0318338498473,0.0,0.0,0.0,0.0,0.312005192041
1473349212569444144,165,1473349212569173796,/rosControlledBubbleRob,0.0335056893528,0.0,0.0,0.0,0.0,-0.27420642972
1473349212608367194,166,1473349212608113634,/rosControlledBubbleRob,0.0437650345266,0.0,0.0,0.0,0.0,-0.0723463222384
1473349212650329748,167,1473349212650098024,/rosControlledBubbleRob,-0.00364520889707,0.0,0.0,0.0,0.0,0.17269384861
1473349212685957894,168,1473349212685750316,/rosControlledBubbleRob,-0.0679456964135,0.0,0.0,0.0,0.0,0.125830188394
1473349212726397289,169,1473349212726132559,/rosControlledBubbleRob,-0.0542329363525,0.0,0.0,0.0,0.0,-0.790063083172
1473349212776183201,170,1473349212775585228,/rosControlledBubbleRob,0.00174767547287,0.0,0.0,0.0,0.0,-0.624710381031
1473349212818345590,171,1473349212818117768,/rosControlledBubbleRob,0.0258741918951,0.0,0.0,0.0,0.0,-0.839340388775
1473349212869306959,172,1473349212869107014,/rosControlledBubbleRob,-0.0258427076042,0.0,0.0,0.0,0.0,-0.866091966629
1473349213143202181,173,1473349213142707029,/rosControlledBubbleRob,-0.0726182684302,0.0,0.0,0.0,0.0,-0.795762896538
1473349213183516924,174,1473349213183243682,/rosControlledBubbleRob,-0.0491882301867,0.0,0.0,0.0,0.0,-0.226029038429
1473349213224249782,175,1473349213224014125,/rosControlledBubbleRob,-0.00150969531387,0.0,0.0,0.0,0.0,0.0523170381784
1473349213262894514,176,1473349213262560381,/rosControlledBubbleRob,0.0134498598054,0.0,0.0,0.0,0.0,-0.530123054981
1473349213303812881,177,1473349213303650782,/rosControlledBubbleRob,0.0393167026341,0.0,0.0,0.0,0.0,-0.0225615072995
1473349213343434480,178,1473349213343166473,/rosControlledBubbleRob,-0.0210765060037,0.0,0.0,0.0,0.0,0.171121522784
1473349213387457367,179,1473349213387228958,/rosControlledBubbleRob,-0.0089386664331,0.0,0.0,0.0,0.0,0.170695051551
1473349213432003069,180,1473349213431634125,/rosControlledBubbleRob,0.0029624493327,0.0,0.0,0.0,0.0,0.126085937023
1473349213476411341,181,1473349213475045259,/rosControlledBubbleRob,0.042885646224,0.0,0.0,0.0,0.0,0.306645184755
1473349213520015891,182,1473349213519736852,/rosControlledBubbleRob,0.00161015265621,0.0,0.0,0.0,0.0,0.196141391993
1473349213560371766,183,1473349213559866141,/rosControlledBubbleRob,-0.00780754769221,0.0,0.0,0.0,0.0,-0.207146674395
1473349213602616907,184,1473349213602351647,/rosControlledBubbleRob,-0.034655675292,0.0,0.0,0.0,0.0,-0.0797349959612
1473349213639963139,185,1473349213639764886,/rosControlledBubbleRob,0.014171525836,0.0,0.0,0.0,0.0,0.186400145292
1473349213683531350,186,1473349213683320303,/rosControlledBubbleRob,-0.0318874940276,0.0,0.0,0.0,0.0,0.24135184288
1473349213720703260,187,1473349213720377545,/rosControlledBubbleRob,-0.0513321049511,0.0,0.0,0.0,0.0,-0.553217887878
1473349213755113846,188,1473349213754717598,/rosControlledBubbleRob,-0.0440335161984,0.0,0.0,0.0,0.0,0.00384353892878
1473349213793106288,189,1473349213792705516,/rosControlledBubbleRob,-0.0702111423016,0.0,0.0,0.0,0.0,0.159210547805
1473349213829218267,190,1473349213828902136,/rosControlledBubbleRob,-0.0373790077865,0.0,0.0,0.0,0.0,-0.148152604699
1473349213864351140,191,1473349213863967878,/rosControlledBubbleRob,0.0324003323913,0.0,0.0,0.0,0.0,-0.223134800792
1473349213901054474,192,1473349213900837007,/rosControlledBubbleRob,0.0494370684028,0.0,0.0,0.0,0.0,-0.657414913177
1473349213935930910,193,1473349213935746929,/rosControlledBubbleRob,0.0423611328006,0.0,0.0,0.0,0.0,-0.179882973433
1473349213977876800,194,1473349213977672453,/rosControlledBubbleRob,0.0952445417643,0.0,0.0,0.0,0.0,-0.00293402653188
1473349214017613992,195,1473349214017208560,/rosControlledBubbleRob,0.0172094274312,0.0,0.0,0.0,0.0,0.218779504299
1473349214054045033,196,1473349214053861106,/rosControlledBubbleRob,-0.0506380051374,0.0,0.0,0.0,0.0,0.272806316614
1473349214091512219,197,1473349214091211033,/rosControlledBubbleRob,-0.110544376075,0.0,0.0,0.0,0.0,0.294387429953
1473349214133338127,198,1473349214132947207,/rosControlledBubbleRob,-0.18910638988,0.0,0.0,0.0,0.0,0.434179663658
1473349214168864472,199,1473349214168670761,/rosControlledBubbleRob,-0.254817098379,0.0,0.0,0.0,0.0,0.435837090015
1473349214205512605,200,1473349214205184082,/rosControlledBubbleRob,-0.330511271954,0.0,0.0,0.0,0.0,0.461255162954
1473349214245391054,201,1473349214245037555,/rosControlledBubbleRob,-0.400938332081,0.0,0.0,0.0,0.0,0.44021999836
1473349214281804805,202,1473349214281524048,/rosControlledBubbleRob,-0.466536462307,0.0,0.0,0.0,0.0,0.377981215715
1473349214318872149,203,1473349214318695823,/rosControlledBubbleRob,-0.535813450813,0.0,0.0,0.0,0.0,0.413465678692
1473349214356002851,204,1473349214355773571,/rosControlledBubbleRob,-0.602691829205,0.0,0.0,0.0,0.0,0.404124438763
1473349214405521311,205,1473349214405232989,/rosControlledBubbleRob,-0.678418040276,0.0,0.0,0.0,0.0,0.429784953594
1473349214462017013,206,1473349214461625278,/rosControlledBubbleRob,-0.749622642994,0.0,0.0,0.0,0.0,0.412223190069
1473349214510833352,207,1473349214510351485,/rosControlledBubbleRob,-0.805628657341,0.0,0.0,0.0,0.0,0.211014568806
1473349214552532690,208,1473349214552328458,/rosControlledBubbleRob,-0.880424797535,0.0,0.0,0.0,0.0,0.262399822474
1473349214595587755,209,1473349214595299793,/rosControlledBubbleRob,-0.911080658436,0.0,0.0,0.0,0.0,-0.175423339009
1473349214632453287,210,1473349214632067960,/rosControlledBubbleRob,-0.986635386944,0.0,0.0,0.0,0.0,-0.115188933909
1473349214669478219,211,1473349214669236268,/rosControlledBubbleRob,-1.00038218498,0.0,0.0,0.0,0.0,0.264903604984
1473349214707237594,212,1473349214706944362,/rosControlledBubbleRob,-0.973607957363,0.0,0.0,0.0,0.0,-0.336268663406
1473349214746740430,213,1473349214746385218,/rosControlledBubbleRob,-1.00013911724,0.0,0.0,0.0,0.0,-0.155251398683
1473349214786227920,214,1473349214785335624,/rosControlledBubbleRob,-0.96722561121,0.0,0.0,0.0,0.0,0.0892384797335
1473349214825421815,215,1473349214825081396,/rosControlledBubbleRob,-1.00472021103,0.0,0.0,0.0,0.0,0.0438850931823
1473349214863543472,216,1473349214863134011,/rosControlledBubbleRob,-0.966751694679,0.0,0.0,0.0,0.0,0.258327007294
1473349214901996359,217,1473349214901733523,/rosControlledBubbleRob,-0.951374351978,0.0,0.0,0.0,0.0,-0.375441491604
1473349214941299304,218,1473349214940967178,/rosControlledBubbleRob,-0.985846161842,0.0,0.0,0.0,0.0,-0.507293522358
1473349214977954108,219,1473349214977538134,/rosControlledBubbleRob,-1.01615524292,0.0,0.0,0.0,0.0,-0.833710432053
1473349215016899747,220,1473349215016524723,/rosControlledBubbleRob,-1.05617320538,0.0,0.0,0.0,0.0,-0.689644634724
1473349215053526568,221,1473349215053020629,/rosControlledBubbleRob,-1.02422094345,0.0,0.0,0.0,0.0,-0.386731863022
1473349215091545898,222,1473349215091363498,/rosControlledBubbleRob,-1.05090403557,0.0,0.0,0.0,0.0,-0.223936855793
1473349215127481211,223,1473349215127181248,/rosControlledBubbleRob,-1.06155014038,0.0,0.0,0.0,0.0,0.286119222641
1473349215163354110,224,1473349215163136065,/rosControlledBubbleRob,-0.994779109955,0.0,0.0,0.0,0.0,0.419727981091
1473349215206085050,225,1473349215205777279,/rosControlledBubbleRob,-0.973335146904,0.0,0.0,0.0,0.0,-0.279154658318
1473349215246430347,226,1473349215246230205,/rosControlledBubbleRob,-1.01714527607,0.0,0.0,0.0,0.0,-0.170003205538
1473349215284503851,227,1473349215283660166,/rosControlledBubbleRob,-1.03162527084,0.0,0.0,0.0,0.0,0.472564935684
1473349215320166369,228,1473349215319992685,/rosControlledBubbleRob,-0.998829901218,0.0,0.0,0.0,0.0,-0.315164417028
1473349215355088205,229,1473349215354895003,/rosControlledBubbleRob,-0.983041524887,0.0,0.0,0.0,0.0,0.0660443603992
1473349215394553681,230,1473349215394249065,/rosControlledBubbleRob,-0.963734745979,0.0,0.0,0.0,0.0,0.775884091854
1473349215434052528,231,1473349215433813199,/rosControlledBubbleRob,-0.98208963871,0.0,0.0,0.0,0.0,1.10592257977
1473349215470089797,232,1473349215469845787,/rosControlledBubbleRob,-0.953778803349,0.0,0.0,0.0,0.0,0.842394709587
1473349215509595328,233,1473349215509351062,/rosControlledBubbleRob,-0.913125634193,0.0,0.0,0.0,0.0,0.205081060529
1473349215547502827,234,1473349215547045965,/rosControlledBubbleRob,-0.907485663891,0.0,0.0,0.0,0.0,0.534472048283
1473349215585258701,235,1473349215584996254,/rosControlledBubbleRob,-0.949947178364,0.0,0.0,0.0,0.0,-0.232970610261
1473349215624559464,236,1473349215624000221,/rosControlledBubbleRob,-0.94942176342,0.0,0.0,0.0,0.0,-0.898413896561
1473349215663354266,237,1473349215662890524,/rosControlledBubbleRob,-0.973278462887,0.0,0.0,0.0,0.0,-0.681699335575
1473349215701723975,238,1473349215701489307,/rosControlledBubbleRob,-0.975664496422,0.0,0.0,0.0,0.0,0.322968423367
1473349215736754512,239,1473349215736390914,/rosControlledBubbleRob,-0.964888393879,0.0,0.0,0.0,0.0,0.402228683233
1473349215774477344,240,1473349215774041398,/rosControlledBubbleRob,-1.00449061394,0.0,0.0,0.0,0.0,0.367896527052
1473349215826529470,241,1473349215826265633,/rosControlledBubbleRob,-1.03408157825,0.0,0.0,0.0,0.0,0.653180539608
1473349215865024239,242,1473349215864652798,/rosControlledBubbleRob,-1.07667684555,0.0,0.0,0.0,0.0,0.427531480789
1473349215901442660,243,1473349215901158069,/rosControlledBubbleRob,-1.08422112465,0.0,0.0,0.0,0.0,-0.136924445629
1473349215937046235,244,1473349215936775388,/rosControlledBubbleRob,-1.02793884277,0.0,0.0,0.0,0.0,-0.282613277435
1473349215975759255,245,1473349215975543825,/rosControlledBubbleRob,-0.941809177399,0.0,0.0,0.0,0.0,-0.018998907879
1473349216032708603,246,1473349216031972507,/rosControlledBubbleRob,-0.85384529829,0.0,0.0,0.0,0.0,0.153725832701
1473349216085000825,247,1473349216084816002,/rosControlledBubbleRob,-0.784875750542,0.0,0.0,0.0,0.0,0.235965520144
1473349216126364849,248,1473349216126149342,/rosControlledBubbleRob,-0.712883234024,0.0,0.0,0.0,0.0,0.275367081165
1473349216166134473,249,1473349216165824979,/rosControlledBubbleRob,-0.627593994141,0.0,0.0,0.0,0.0,-0.0450044423342
1473349216217955281,250,1473349216216943900,/rosControlledBubbleRob,-0.553852677345,0.0,0.0,0.0,0.0,-0.0680532157421
1473349216273947268,251,1473349216273642941,/rosControlledBubbleRob,-0.481937110424,0.0,0.0,0.0,0.0,-0.0436122231185
1473349216312978122,252,1473349216312695486,/rosControlledBubbleRob,-0.411872059107,0.0,0.0,0.0,0.0,0.0106348628178
1473349216359213367,253,1473349216358970137,/rosControlledBubbleRob,-0.35227432847,0.0,0.0,0.0,0.0,0.206810861826
1473349216414222792,254,1473349216413983479,/rosControlledBubbleRob,-0.282805502415,0.0,0.0,0.0,0.0,0.155630171299
1473349216470036935,255,1473349216469527752,/rosControlledBubbleRob,-0.212722122669,0.0,0.0,0.0,0.0,0.0849683582783
1473349216523502637,256,1473349216523234894,/rosControlledBubbleRob,-0.166959747672,0.0,0.0,0.0,0.0,0.303268969059
1473349216580208588,257,1473349216579929126,/rosControlledBubbleRob,-0.0902421623468,0.0,0.0,0.0,0.0,0.374182581902
1473349216632780241,258,1473349216632542056,/rosControlledBubbleRob,-0.0336412601173,0.0,0.0,0.0,0.0,0.596069812775
1473349216682708269,259,1473349216682369326,/rosControlledBubbleRob,0.0283775497228,0.0,0.0,0.0,0.0,0.682069301605
1473349216717793245,260,1473349216717558606,/rosControlledBubbleRob,0.104035690427,0.0,0.0,0.0,0.0,0.678560853004
1473349216755210878,261,1473349216754898003,/rosControlledBubbleRob,0.172455847263,0.0,0.0,0.0,0.0,0.711313784122
1473349216790415999,262,1473349216789819425,/rosControlledBubbleRob,0.250926852226,0.0,0.0,0.0,0.0,0.625508964062
1473349216825176100,263,1473349216824907845,/rosControlledBubbleRob,0.319958567619,0.0,0.0,0.0,0.0,0.738949000835
1473349216863154895,264,1473349216862808657,/rosControlledBubbleRob,0.378333836794,0.0,0.0,0.0,0.0,0.880499660969
1473349216907746895,265,1473349216907432431,/rosControlledBubbleRob,0.383755922318,0.0,0.0,0.0,0.0,0.44623503089
1473349216943728695,266,1473349216943380785,/rosControlledBubbleRob,0.46453371644,0.0,0.0,0.0,0.0,-0.0261758510023
1473349216980788740,267,1473349216980322449,/rosControlledBubbleRob,0.540821015835,0.0,0.0,0.0,0.0,0.0306506287307
1473349217033778534,268,1473349217033430702,/rosControlledBubbleRob,0.487595230341,0.0,0.0,0.0,0.0,0.426030158997
1473349217071801240,269,1473349217071514855,/rosControlledBubbleRob,0.474179118872,0.0,0.0,0.0,0.0,0.0467821918428
1473349217110781884,270,1473349217110416856,/rosControlledBubbleRob,0.510628521442,0.0,0.0,0.0,0.0,0.0696393474936
1473349217150014062,271,1473349217149726827,/rosControlledBubbleRob,0.522898197174,0.0,0.0,0.0,0.0,0.436084121466
1473349217185428491,272,1473349217185218869,/rosControlledBubbleRob,0.581089437008,0.0,0.0,0.0,0.0,0.54511064291
1473349217237229464,273,1473349217237001221,/rosControlledBubbleRob,0.591327130795,0.0,0.0,0.0,0.0,-0.0870277732611
1473349217288092982,274,1473349217287727930,/rosControlledBubbleRob,0.58621352911,0.0,0.0,0.0,0.0,0.688503682613
1473349217347333868,275,1473349217347097271,/rosControlledBubbleRob,0.591566383839,0.0,0.0,0.0,0.0,-0.0508907809854
1473349217386152349,276,1473349217385851240,/rosControlledBubbleRob,0.533725619316,0.0,0.0,0.0,0.0,-0.243278563023
1473349217423050274,277,1473349217422595770,/rosControlledBubbleRob,0.530344963074,0.0,0.0,0.0,0.0,-0.787221074104
1473349217459412685,278,1473349217459219947,/rosControlledBubbleRob,0.571005940437,0.0,0.0,0.0,0.0,-0.914332807064
1473349217495658963,279,1473349217495441412,/rosControlledBubbleRob,0.570964694023,0.0,0.0,0.0,0.0,-0.701218605042
1473349217532063611,280,1473349217531822632,/rosControlledBubbleRob,0.565691769123,0.0,0.0,0.0,0.0,-0.288240998983
1473349217570778631,281,1473349217570448368,/rosControlledBubbleRob,0.628572046757,0.0,0.0,0.0,0.0,-0.244830742478
1473349217606948174,282,1473349217606719568,/rosControlledBubbleRob,0.62183457613,0.0,0.0,0.0,0.0,-0.894395112991
1473349217644925898,283,1473349217644611342,/rosControlledBubbleRob,0.610277533531,0.0,0.0,0.0,0.0,-0.484350949526
1473349217681347190,284,1473349217681142234,/rosControlledBubbleRob,0.563844799995,0.0,0.0,0.0,0.0,-0.402262061834
1473349217718782546,285,1473349217718620613,/rosControlledBubbleRob,0.521782815456,0.0,0.0,0.0,0.0,-1.08470964432
1473349217760085180,286,1473349217759843251,/rosControlledBubbleRob,0.523079097271,0.0,0.0,0.0,0.0,-0.960874855518
1473349217797126757,287,1473349217796844063,/rosControlledBubbleRob,0.495221197605,0.0,0.0,0.0,0.0,-0.838632285595
1473349217833729657,288,1473349217833530476,/rosControlledBubbleRob,0.471153408289,0.0,0.0,0.0,0.0,-0.177238285542
1473349217873761331,289,1473349217873341260,/rosControlledBubbleRob,0.450171262026,0.0,0.0,0.0,0.0,-0.279276430607
1473349217910085246,290,1473349217909821235,/rosControlledBubbleRob,0.461798578501,0.0,0.0,0.0,0.0,0.0675066709518
1473349217950093311,291,1473349217949869933,/rosControlledBubbleRob,0.429806381464,0.0,0.0,0.0,0.0,0.346170812845
1473349217992355684,292,1473349217992034587,/rosControlledBubbleRob,0.373407363892,0.0,0.0,0.0,0.0,0.0512500293553
1473349218037643910,293,1473349218034536434,/rosControlledBubbleRob,0.324184417725,0.0,0.0,0.0,0.0,0.320837765932
1473349218072816142,294,1473349218072518601,/rosControlledBubbleRob,0.289752960205,0.0,0.0,0.0,0.0,0.0584690533578
1473349218109693203,295,1473349218109376126,/rosControlledBubbleRob,0.243121385574,0.0,0.0,0.0,0.0,-0.153004974127
1473349218147941221,296,1473349218147271109,/rosControlledBubbleRob,0.203668758273,0.0,0.0,0.0,0.0,-0.302734106779
1473349218184902732,297,1473349218184298125,/rosControlledBubbleRob,0.164395153522,0.0,0.0,0.0,0.0,-1.00170481205
1473349218221909239,298,1473349218221523086,/rosControlledBubbleRob,0.178906559944,0.0,0.0,0.0,0.0,-0.904769420624
1473349218259197687,299,1473349218258699834,/rosControlledBubbleRob,0.181746765971,0.0,0.0,0.0,0.0,-0.166822806001
1473349218296133013,300,1473349218295631854,/rosControlledBubbleRob,0.111893184483,0.0,0.0,0.0,0.0,-0.475812852383
1473349218332553645,301,1473349218332267859,/rosControlledBubbleRob,0.11829393357,0.0,0.0,0.0,0.0,-0.0643022358418
1473349218370786405,302,1473349218370411980,/rosControlledBubbleRob,0.154242098331,0.0,0.0,0.0,0.0,-0.032894808799
1473349218407547212,303,1473349218407233285,/rosControlledBubbleRob,0.176197186112,0.0,0.0,0.0,0.0,-0.666885137558
1473349218458641688,304,1473349218458340776,/rosControlledBubbleRob,0.179261893034,0.0,0.0,0.0,0.0,-0.215747669339
1473349218517108653,305,1473349218516652465,/rosControlledBubbleRob,0.21029086411,0.0,0.0,0.0,0.0,0.0692591071129
1473349218569987886,306,1473349218569741967,/rosControlledBubbleRob,0.24063770473,0.0,0.0,0.0,0.0,0.506979763508
1473349218608222487,307,1473349218607771893,/rosControlledBubbleRob,0.283870428801,0.0,0.0,0.0,0.0,0.341056793928
1473349218643350166,308,1473349218642900461,/rosControlledBubbleRob,0.350463926792,0.0,0.0,0.0,0.0,0.553001701832
1473349218685709412,309,1473349218685491182,/rosControlledBubbleRob,0.387963265181,0.0,0.0,0.0,0.0,0.288697004318
1473349218721340734,310,1473349218721091576,/rosControlledBubbleRob,0.435321688652,0.0,0.0,0.0,0.0,0.19249548018
1473349218758744421,311,1473349218758487716,/rosControlledBubbleRob,0.470580458641,0.0,0.0,0.0,0.0,-0.0646900981665
1473349218800285000,312,1473349218799955237,/rosControlledBubbleRob,0.549373745918,0.0,0.0,0.0,0.0,0.0317830070853
1473349218837489080,313,1473349218837217631,/rosControlledBubbleRob,0.492369413376,0.0,0.0,0.0,0.0,0.0721207633615
1473349218877319691,314,1473349218877066210,/rosControlledBubbleRob,0.450681984425,0.0,0.0,0.0,0.0,-0.485933691263
1473349218930829952,315,1473349218930597107,/rosControlledBubbleRob,0.423106074333,0.0,0.0,0.0,0.0,0.050277158618
1473349218984360853,316,1473349218984089835,/rosControlledBubbleRob,0.491312980652,0.0,0.0,0.0,0.0,-0.200692534447
1473349219025194044,317,1473349219024730696,/rosControlledBubbleRob,0.48139244318,0.0,0.0,0.0,0.0,-0.698313176632
1473349219063187858,318,1473349219062634292,/rosControlledBubbleRob,0.43713209033,0.0,0.0,0.0,0.0,-0.849095106125
1473349219100564746,319,1473349219100317980,/rosControlledBubbleRob,0.410402387381,0.0,0.0,0.0,0.0,-0.143048971891
1473349219134998356,320,1473349219134768610,/rosControlledBubbleRob,0.453214198351,0.0,0.0,0.0,0.0,0.0233657304198
1473349219171426808,321,1473349219171029682,/rosControlledBubbleRob,0.496259123087,0.0,0.0,0.0,0.0,-0.270470768213
1473349219208504825,322,1473349219207958052,/rosControlledBubbleRob,0.523401021957,0.0,0.0,0.0,0.0,-0.0846579372883
1473349219249980324,323,1473349219249703226,/rosControlledBubbleRob,0.47239279747,0.0,0.0,0.0,0.0,-0.0382678993046
1473349219286340420,324,1473349219286145355,/rosControlledBubbleRob,0.456360459328,0.0,0.0,0.0,0.0,0.393372297287
1473349219322998937,325,1473349219322720234,/rosControlledBubbleRob,0.475575506687,0.0,0.0,0.0,0.0,0.331081479788
1473349219360718807,326,1473349219360428509,/rosControlledBubbleRob,0.50826305151,0.0,0.0,0.0,0.0,0.719831287861
1473349219400831960,327,1473349219400594177,/rosControlledBubbleRob,0.567870438099,0.0,0.0,0.0,0.0,0.724600076675
1473349219436128030,328,1473349219435945160,/rosControlledBubbleRob,0.515685856342,0.0,0.0,0.0,0.0,0.560059130192
1473349219473254348,329,1473349219472906125,/rosControlledBubbleRob,0.461243122816,0.0,0.0,0.0,0.0,0.586103856564
1473349219510323093,330,1473349219510021528,/rosControlledBubbleRob,0.416277199984,0.0,0.0,0.0,0.0,0.133961975574
1473349219548564783,331,1473349219548214167,/rosControlledBubbleRob,0.451016902924,0.0,0.0,0.0,0.0,-0.261704683304
1473349219585176541,332,1473349219584998654,/rosControlledBubbleRob,0.476326823235,0.0,0.0,0.0,0.0,0.367322474718
1473349219628660821,333,1473349219628001743,/rosControlledBubbleRob,0.448244869709,0.0,0.0,0.0,0.0,-0.439631521702
1473349219665353016,334,1473349219665021051,/rosControlledBubbleRob,0.503143489361,0.0,0.0,0.0,0.0,-0.441888213158
1473349219701772688,335,1473349219701535592,/rosControlledBubbleRob,0.529353916645,0.0,0.0,0.0,0.0,-0.87573325634
1473349219738328792,336,1473349219738173542,/rosControlledBubbleRob,0.5366320014,0.0,0.0,0.0,0.0,-0.542869567871
1473349219776110006,337,1473349219775875040,/rosControlledBubbleRob,0.550313293934,0.0,0.0,0.0,0.0,0.320087701082
1473349219817212155,338,1473349219816821885,/rosControlledBubbleRob,0.561920762062,0.0,0.0,0.0,0.0,0.990422666073
1473349219854527937,339,1473349219854081743,/rosControlledBubbleRob,0.576602399349,0.0,0.0,0.0,0.0,0.727342903614
1473349219892060833,340,1473349219891832189,/rosControlledBubbleRob,0.543010234833,0.0,0.0,0.0,0.0,0.553292810917
1473349219929464861,341,1473349219929043900,/rosControlledBubbleRob,0.529411971569,0.0,0.0,0.0,0.0,0.731418609619
1473349219966090545,342,1473349219965854330,/rosControlledBubbleRob,0.52771961689,0.0,0.0,0.0,0.0,0.244203671813
1473349220001727177,343,1473349220001503363,/rosControlledBubbleRob,0.474133968353,0.0,0.0,0.0,0.0,-0.369863778353
1473349220039182718,344,1473349220038876824,/rosControlledBubbleRob,0.5311819911,0.0,0.0,0.0,0.0,-0.37832698226
1473349220077206342,345,1473349220076774302,/rosControlledBubbleRob,0.540619254112,0.0,0.0,0.0,0.0,-0.892636418343
1473349220114593563,346,1473349220114129403,/rosControlledBubbleRob,0.533514738083,0.0,0.0,0.0,0.0,-0.31819164753
1473349220152226535,347,1473349220151998080,/rosControlledBubbleRob,0.541709780693,0.0,0.0,0.0,0.0,0.457747668028
1473349220193347525,348,1473349220192491879,/rosControlledBubbleRob,0.561466574669,0.0,0.0,0.0,0.0,-0.0115891061723
1473349220233403958,349,1473349220233110334,/rosControlledBubbleRob,0.613988816738,0.0,0.0,0.0,0.0,0.0741278454661
1473349220269942442,350,1473349220269667693,/rosControlledBubbleRob,0.600947916508,0.0,0.0,0.0,0.0,-0.117692224681
1473349220308943718,351,1473349220308738610,/rosControlledBubbleRob,0.530665516853,0.0,0.0,0.0,0.0,-0.408040314913
1473349220359588140,352,1473349220359420058,/rosControlledBubbleRob,0.542444169521,0.0,0.0,0.0,0.0,0.0365944467485
1473349220398986712,353,1473349220398754801,/rosControlledBubbleRob,0.515991806984,0.0,0.0,0.0,0.0,0.000676743977237
1473349220435045874,354,1473349220434719324,/rosControlledBubbleRob,0.582256734371,0.0,0.0,0.0,0.0,-0.19583965838
1473349220479346829,355,1473349220479120567,/rosControlledBubbleRob,0.476573616266,0.0,0.0,0.0,0.0,0.134833350778
1473349220529445084,356,1473349220529198028,/rosControlledBubbleRob,0.404340714216,0.0,0.0,0.0,0.0,0.119711004198
1473349220566236007,357,1473349220565784079,/rosControlledBubbleRob,0.338950753212,0.0,0.0,0.0,0.0,0.109973952174
1473349220602313351,358,1473349220602026001,/rosControlledBubbleRob,0.258542686701,0.0,0.0,0.0,0.0,-0.00903413258493
1473349220641335031,359,1473349220641030429,/rosControlledBubbleRob,0.195892006159,0.0,0.0,0.0,0.0,-0.0854641497135
1473349220677004052,360,1473349220676730183,/rosControlledBubbleRob,0.142872899771,0.0,0.0,0.0,0.0,-0.486834913492
1473349220718039929,361,1473349220717833032,/rosControlledBubbleRob,0.0791234597564,0.0,0.0,0.0,0.0,-0.295605957508
1473349220755517076,362,1473349220755318659,/rosControlledBubbleRob,0.0906128585339,0.0,0.0,0.0,0.0,0.262294352055
1473349220804444668,363,1473349220804157555,/rosControlledBubbleRob,0.0502278618515,0.0,0.0,0.0,0.0,0.324194788933
1473349220843491429,364,1473349220843120436,/rosControlledBubbleRob,-0.0230176318437,0.0,0.0,0.0,0.0,0.333635151386
1473349220880828807,365,1473349220880544640,/rosControlledBubbleRob,-0.0969448462129,0.0,0.0,0.0,0.0,0.26534318924
1473349220920481513,366,1473349220920219350,/rosControlledBubbleRob,-0.171384379268,0.0,0.0,0.0,0.0,0.239127069712
1473349220957293254,367,1473349220956929568,/rosControlledBubbleRob,-0.242481991649,0.0,0.0,0.0,0.0,0.194281384349
1473349220991119218,368,1473349220990789628,/rosControlledBubbleRob,-0.312107741833,0.0,0.0,0.0,0.0,0.187758147717
1473349221030024147,369,1473349221029774315,/rosControlledBubbleRob,-0.384375780821,0.0,0.0,0.0,0.0,0.162251785398
1473349221070485302,370,1473349221070252264,/rosControlledBubbleRob,-0.4539488554,0.0,0.0,0.0,0.0,0.123356573284
1473349221123942403,371,1473349221123600894,/rosControlledBubbleRob,-0.521606266499,0.0,0.0,0.0,0.0,0.0951317846775
1473349221162077888,372,1473349221161619539,/rosControlledBubbleRob,-0.598191142082,0.0,0.0,0.0,0.0,0.0542825050652
1473349221199740406,373,1473349221199389405,/rosControlledBubbleRob,-0.667004942894,0.0,0.0,0.0,0.0,0.0367318764329
1473349221236426189,374,1473349221236127544,/rosControlledBubbleRob,-0.737838089466,0.0,0.0,0.0,0.0,0.0118642989546
1473349221275607546,375,1473349221275245558,/rosControlledBubbleRob,-0.806477069855,0.0,0.0,0.0,0.0,0.000751434767153
1473349221310781726,376,1473349221310406961,/rosControlledBubbleRob,-0.875256538391,0.0,0.0,0.0,0.0,0.00661935284734
1473349221349286566,377,1473349221348990553,/rosControlledBubbleRob,-0.937065958977,0.0,0.0,0.0,0.0,0.0725902915001
1473349221385544904,378,1473349221385270548,/rosControlledBubbleRob,-0.91128975153,0.0,0.0,0.0,0.0,0.191261351109
1473349221424691709,379,1473349221424361275,/rosControlledBubbleRob,-0.930366039276,0.0,0.0,0.0,0.0,0.116455726326
1473349221460674193,380,1473349221460273090,/rosControlledBubbleRob,-0.944050490856,0.0,0.0,0.0,0.0,0.544615089893
1473349221498863746,381,1473349221498619923,/rosControlledBubbleRob,-0.979942619801,0.0,0.0,0.0,0.0,0.0938505902886
1473349221537978810,382,1473349221537763418,/rosControlledBubbleRob,-1.04470133781,0.0,0.0,0.0,0.0,-0.163076236844
1473349221577379541,383,1473349221576792295,/rosControlledBubbleRob,-1.0641784668,0.0,0.0,0.0,0.0,-0.550631582737
1473349221629791496,384,1473349221629447706,/rosControlledBubbleRob,-1.02192926407,0.0,0.0,0.0,0.0,-0.390514731407
1473349221671192434,385,1473349221670955047,/rosControlledBubbleRob,-1.0229139328,0.0,0.0,0.0,0.0,-0.486562848091
1473349221707610697,386,1473349221707324677,/rosControlledBubbleRob,-1.01513469219,0.0,0.0,0.0,0.0,0.44827657938
1473349221744306889,387,1473349221743926381,/rosControlledBubbleRob,-1.0703753233,0.0,0.0,0.0,0.0,0.372024536133
1473349221785402063,388,1473349221785145302,/rosControlledBubbleRob,-1.0505900383,0.0,0.0,0.0,0.0,0.150323450565
1473349221821254678,389,1473349221821015458,/rosControlledBubbleRob,-0.991907775402,0.0,0.0,0.0,0.0,0.325853437185
1473349221863355865,390,1473349221862651682,/rosControlledBubbleRob,-0.992082893848,0.0,0.0,0.0,0.0,-0.38489612937
1473349221901678796,391,1473349221901327766,/rosControlledBubbleRob,-0.961556613445,0.0,0.0,0.0,0.0,-0.216919273138
1473349221937213776,392,1473349221936605233,/rosControlledBubbleRob,-0.972100794315,0.0,0.0,0.0,0.0,-0.622897744179
1473349221993729379,393,1473349221993322696,/rosControlledBubbleRob,-1.00192117691,0.0,0.0,0.0,0.0,0.240696042776
1473349222046129061,394,1473349222045891571,/rosControlledBubbleRob,-0.981620788574,0.0,0.0,0.0,0.0,0.333588123322
1473349222101191491,395,1473349222100907109,/rosControlledBubbleRob,-0.997233569622,0.0,0.0,0.0,0.0,-0.225701078773
1473349222135854736,396,1473349222135580574,/rosControlledBubbleRob,-0.969018518925,0.0,0.0,0.0,0.0,0.1533485502
1473349222173826743,397,1473349222173523072,/rosControlledBubbleRob,-1.00518918037,0.0,0.0,0.0,0.0,0.193778574467
1473349222209330059,398,1473349222209032980,/rosControlledBubbleRob,-0.986264050007,0.0,0.0,0.0,0.0,0.35867241025
1473349222245258474,399,1473349222244957466,/rosControlledBubbleRob,-0.994597256184,0.0,0.0,0.0,0.0,-0.0530385561287
1473349222280271402,400,1473349222279930988,/rosControlledBubbleRob,-1.00119411945,0.0,0.0,0.0,0.0,0.4731785357
1473349222316594098,401,1473349222316266904,/rosControlledBubbleRob,-0.9744566679,0.0,0.0,0.0,0.0,0.230723813176
1473349222352216187,402,1473349222351892514,/rosControlledBubbleRob,-1.02475237846,0.0,0.0,0.0,0.0,0.172065705061
1473349222390811087,403,1473349222390371524,/rosControlledBubbleRob,-1.067076087,0.0,0.0,0.0,0.0,0.0337208136916
1473349222428721178,404,1473349222428199788,/rosControlledBubbleRob,-1.01571941376,0.0,0.0,0.0,0.0,-0.125954300165
1473349222464803747,405,1473349222464490670,/rosControlledBubbleRob,-1.02251219749,0.0,0.0,0.0,0.0,0.697166621685
1473349222503821601,406,1473349222503607625,/rosControlledBubbleRob,-0.979672968388,0.0,0.0,0.0,0.0,0.401736348867
1473349222542417923,407,1473349222542092956,/rosControlledBubbleRob,-0.944008648396,0.0,0.0,0.0,0.0,0.343745321035
1473349222579242563,408,1473349222578859032,/rosControlledBubbleRob,-0.988228797913,0.0,0.0,0.0,0.0,0.274343252182
1473349222616996420,409,1473349222616428719,/rosControlledBubbleRob,-1.00060164928,0.0,0.0,0.0,0.0,-0.479121625423
1473349222651532015,410,1473349222651324635,/rosControlledBubbleRob,-0.985204696655,0.0,0.0,0.0,0.0,-0.147643357515
1473349222687966744,411,1473349222687639822,/rosControlledBubbleRob,-0.949768126011,0.0,0.0,0.0,0.0,0.284492760897
1473349222728914635,412,1473349222728586217,/rosControlledBubbleRob,-0.998724281788,0.0,0.0,0.0,0.0,0.183054283261
1473349222769545148,413,1473349222769265401,/rosControlledBubbleRob,-1.00446212292,0.0,0.0,0.0,0.0,0.727380037308
1473349222821099528,414,1473349222820411772,/rosControlledBubbleRob,-1.01187491417,0.0,0.0,0.0,0.0,0.0903509929776
1473349222860646648,415,1473349222860024287,/rosControlledBubbleRob,-0.95654386282,0.0,0.0,0.0,0.0,-0.108468323946
1473349222898744827,416,1473349222898473084,/rosControlledBubbleRob,-0.88912576437,0.0,0.0,0.0,0.0,0.048992998898
1473349222935802915,417,1473349222935633245,/rosControlledBubbleRob,-0.79129576683,0.0,0.0,0.0,0.0,-0.0532972067595
1473349222971447163,418,1473349222971211185,/rosControlledBubbleRob,-0.717361152172,0.0,0.0,0.0,0.0,-0.193047985435
1473349223009088550,419,1473349223008764765,/rosControlledBubbleRob,-0.651694059372,0.0,0.0,0.0,0.0,-0.129818573594
1473349223046263468,420,1473349223045971720,/rosControlledBubbleRob,-0.580498576164,0.0,0.0,0.0,0.0,-0.146467685699
1473349223079980318,421,1473349223079783848,/rosControlledBubbleRob,-0.504463255405,0.0,0.0,0.0,0.0,0.00219985074364
1473349223117196859,422,1473349223116934512,/rosControlledBubbleRob,-0.421707689762,0.0,0.0,0.0,0.0,0.0627028718591
1473349223155130522,423,1473349223154757798,/rosControlledBubbleRob,-0.348839819431,0.0,0.0,0.0,0.0,-0.00557405455038
1473349223190325562,424,1473349223190084775,/rosControlledBubbleRob,-0.283590048552,0.0,0.0,0.0,0.0,-0.017648473382
1473349223232737976,425,1473349223232409134,/rosControlledBubbleRob,-0.216278254986,0.0,0.0,0.0,0.0,0.0705538615584
1473349223270037979,426,1473349223269765030,/rosControlledBubbleRob,-0.138682857156,0.0,0.0,0.0,0.0,-0.0205205548555
1473349223308005469,427,1473349223307660751,/rosControlledBubbleRob,-0.0965588614345,0.0,0.0,0.0,0.0,-0.354016542435
1473349223344761898,428,1473349223344506374,/rosControlledBubbleRob,-0.0625405982137,0.0,0.0,0.0,0.0,0.172229379416
1473349223383512070,429,1473349223382994388,/rosControlledBubbleRob,-0.00238710385747,0.0,0.0,0.0,0.0,0.322777211666
1473349223419774027,430,1473349223419577458,/rosControlledBubbleRob,0.0516450814903,0.0,0.0,0.0,0.0,0.301756352186
1473349223458479043,431,1473349223458213213,/rosControlledBubbleRob,0.126594930887,0.0,0.0,0.0,0.0,0.384195685387
1473349223494079669,432,1473349223493854666,/rosControlledBubbleRob,0.215808004141,0.0,0.0,0.0,0.0,0.535240292549
1473349223531119938,433,1473349223530810931,/rosControlledBubbleRob,0.291715651751,0.0,0.0,0.0,0.0,0.431273043156
1473349223566015979,434,1473349223565653497,/rosControlledBubbleRob,0.359659135342,0.0,0.0,0.0,0.0,0.475514560938
1473349223603138765,435,1473349223602815586,/rosControlledBubbleRob,0.42414572835,0.0,0.0,0.0,0.0,0.677037835121
1473349223641049261,436,1473349223640738236,/rosControlledBubbleRob,0.490349680185,0.0,0.0,0.0,0.0,0.894062280655
1473349223677490287,437,1473349223677129336,/rosControlledBubbleRob,0.545363724232,0.0,0.0,0.0,0.0,1.15348231792
1473349223714768077,438,1473349223714486020,/rosControlledBubbleRob,0.614407658577,0.0,0.0,0.0,0.0,1.6185696125
1473349223753577599,439,1473349223753364238,/rosControlledBubbleRob,0.655595600605,0.0,0.0,0.0,0.0,1.73941743374
1473349223789819231,440,1473349223789365495,/rosControlledBubbleRob,0.741302907467,0.0,0.0,0.0,0.0,1.97545003891
1473349223827791560,441,1473349223827145240,/rosControlledBubbleRob,0.793431818485,0.0,0.0,0.0,0.0,2.28518986702
1473349223867615684,442,1473349223867208055,/rosControlledBubbleRob,0.797607541084,0.0,0.0,0.0,0.0,1.83406448364
1473349223906491756,443,1473349223906190342,/rosControlledBubbleRob,0.813539147377,0.0,0.0,0.0,0.0,1.79278576374
1473349223960072129,444,1473349223959857658,/rosControlledBubbleRob,0.816652297974,0.0,0.0,0.0,0.0,2.41421532631
1473349224011982476,445,1473349224011553105,/rosControlledBubbleRob,0.860219359398,0.0,0.0,0.0,0.0,2.63925528526
1473349224066549960,446,1473349224065924469,/rosControlledBubbleRob,0.883930385113,0.0,0.0,0.0,0.0,2.87003946304
1473349224120421283,447,1473349224120198634,/rosControlledBubbleRob,0.856309771538,0.0,0.0,0.0,0.0,3.09677171707
1473349224173551800,448,1473349224173164640,/rosControlledBubbleRob,0.84292280674,0.0,0.0,0.0,0.0,2.96538186073
1473349224229878417,449,1473349224229488830,/rosControlledBubbleRob,0.808349430561,0.0,0.0,0.0,0.0,2.49692845345
1473349224275901697,450,1473349224275594854,/rosControlledBubbleRob,0.78246986866,0.0,0.0,0.0,0.0,2.55843710899
1473349224313252644,451,1473349224312830830,/rosControlledBubbleRob,0.769150078297,0.0,0.0,0.0,0.0,2.11118745804
1473349224350924903,452,1473349224350357048,/rosControlledBubbleRob,0.802449345589,0.0,0.0,0.0,0.0,2.81363320351
1473349224394180919,453,1473349224393979516,/rosControlledBubbleRob,0.840875923634,0.0,0.0,0.0,0.0,2.86147451401
1473349224437939034,454,1473349224437720465,/rosControlledBubbleRob,0.828076064587,0.0,0.0,0.0,0.0,3.13969397545
1473349224473917706,455,1473349224473550001,/rosControlledBubbleRob,0.788426816463,0.0,0.0,0.0,0.0,2.88607311249
1473349224513127268,456,1473349224512853624,/rosControlledBubbleRob,0.742205739021,0.0,0.0,0.0,0.0,2.43678641319
1473349224549413969,457,1473349224549097590,/rosControlledBubbleRob,0.7273478508,0.0,0.0,0.0,0.0,2.30034375191
1473349224587463414,458,1473349224586650359,/rosControlledBubbleRob,0.727180719376,0.0,0.0,0.0,0.0,2.17489624023
1473349224628919028,459,1473349224628277885,/rosControlledBubbleRob,0.762111783028,0.0,0.0,0.0,0.0,2.2808701992
1473349224666451549,460,1473349224666179858,/rosControlledBubbleRob,0.795670866966,0.0,0.0,0.0,0.0,2.3157992363
1473349224703674935,461,1473349224703449088,/rosControlledBubbleRob,0.791189193726,0.0,0.0,0.0,0.0,2.59066081047
1473349224743698861,462,1473349224743237541,/rosControlledBubbleRob,0.804641783237,0.0,0.0,0.0,0.0,2.13765120506
1473349224781134323,463,1473349224780619893,/rosControlledBubbleRob,0.779388189316,0.0,0.0,0.0,0.0,1.85274279118
1473349224820788951,464,1473349224820502482,/rosControlledBubbleRob,0.751614630222,0.0,0.0,0.0,0.0,2.17770266533
1473349224857387503,465,1473349224856886268,/rosControlledBubbleRob,0.815203070641,0.0,0.0,0.0,0.0,2.18975353241
1473349224895202076,466,1473349224894967452,/rosControlledBubbleRob,0.838830471039,0.0,0.0,0.0,0.0,2.17148089409
1473349224931951591,467,1473349224931548437,/rosControlledBubbleRob,0.857975482941,0.0,0.0,0.0,0.0,2.35035920143
1473349224975281611,468,1473349224975077560,/rosControlledBubbleRob,0.853192329407,0.0,0.0,0.0,0.0,2.13899374008
1473349225016827849,469,1473349225016413292,/rosControlledBubbleRob,0.852444708347,0.0,0.0,0.0,0.0,2.24546766281
1473349225060242139,470,1473349225059796062,/rosControlledBubbleRob,0.85976266861,0.0,0.0,0.0,0.0,2.32578825951
1473349225102796896,471,1473349225102619757,/rosControlledBubbleRob,0.816713571548,0.0,0.0,0.0,0.0,2.11787772179
1473349225140145417,472,1473349225139827626,/rosControlledBubbleRob,0.83015704155,0.0,0.0,0.0,0.0,2.17400956154
1473349225176039786,473,1473349225175746690,/rosControlledBubbleRob,0.884381175041,0.0,0.0,0.0,0.0,2.21680688858
1473349225218361797,474,1473349225218207477,/rosControlledBubbleRob,0.851244926453,0.0,0.0,0.0,0.0,2.32186722755
1473349225266185846,475,1473349225265746316,/rosControlledBubbleRob,0.858605027199,0.0,0.0,0.0,0.0,1.64095914364
1473349225318677507,476,1473349225318475009,/rosControlledBubbleRob,0.891464710236,0.0,0.0,0.0,0.0,1.79101109505
1473349225368368822,477,1473349225368032451,/rosControlledBubbleRob,0.888416349888,0.0,0.0,0.0,0.0,2.03035306931
1473349225420039916,478,1473349225419790610,/rosControlledBubbleRob,0.894445002079,0.0,0.0,0.0,0.0,1.63735473156
1473349225471326987,479,1473349225471093874,/rosControlledBubbleRob,0.870138585567,0.0,0.0,0.0,0.0,1.37435233593
1473349225507458698,480,1473349225507148181,/rosControlledBubbleRob,0.87930315733,0.0,0.0,0.0,0.0,1.13550031185
1473349225545690617,481,1473349225545438557,/rosControlledBubbleRob,0.914253532887,0.0,0.0,0.0,0.0,1.12679374218
1473349225583652451,482,1473349225583326908,/rosControlledBubbleRob,0.934166073799,0.0,0.0,0.0,0.0,0.707380533218
1473349225623475380,483,1473349225622893141,/rosControlledBubbleRob,0.888298511505,0.0,0.0,0.0,0.0,0.504111766815
1473349225678163882,484,1473349225677929629,/rosControlledBubbleRob,0.972782313824,0.0,0.0,0.0,0.0,0.346122920513
1473349225730334313,485,1473349225730124785,/rosControlledBubbleRob,0.997845351696,0.0,0.0,0.0,0.0,0.821165859699
1473349225780075889,486,1473349225779793145,/rosControlledBubbleRob,0.997710049152,0.0,0.0,0.0,0.0,0.145482301712
1473349225815652074,487,1473349225815285213,/rosControlledBubbleRob,0.992766261101,0.0,0.0,0.0,0.0,-0.180649787188
1473349225851637626,488,1473349225851289221,/rosControlledBubbleRob,1.04413282871,0.0,0.0,0.0,0.0,-0.185806944966
1473349225889379907,489,1473349225889098795,/rosControlledBubbleRob,0.992619454861,0.0,0.0,0.0,0.0,-0.0484751090407
1473349225929431506,490,1473349225929115997,/rosControlledBubbleRob,0.988017380238,0.0,0.0,0.0,0.0,0.35436975956
1473349225966844134,491,1473349225966536311,/rosControlledBubbleRob,1.02986109257,0.0,0.0,0.0,0.0,-0.314438194036
1473349226003354030,492,1473349226003141644,/rosControlledBubbleRob,1.00021195412,0.0,0.0,0.0,0.0,-0.582590699196
1473349226041088299,493,1473349226040574619,/rosControlledBubbleRob,0.959984958172,0.0,0.0,0.0,0.0,-0.514186501503
1473349226089984170,494,1473349226089722273,/rosControlledBubbleRob,0.971947312355,0.0,0.0,0.0,0.0,-0.239574283361
1473349226147718416,495,1473349226147351931,/rosControlledBubbleRob,0.96430015564,0.0,0.0,0.0,0.0,-0.011208713986
1473349226190108320,496,1473349226189600269,/rosControlledBubbleRob,0.962664961815,0.0,0.0,0.0,0.0,-0.469946622849
1473349226228765059,497,1473349226228234673,/rosControlledBubbleRob,1.01632988453,0.0,0.0,0.0,0.0,-0.587199807167
1473349226268865257,498,1473349226268673738,/rosControlledBubbleRob,1.03732955456,0.0,0.0,0.0,0.0,-0.245179995894
1473349226306818595,499,1473349226306542069,/rosControlledBubbleRob,0.982645988464,0.0,0.0,0.0,0.0,0.142122671008
1473349226344562839,500,1473349226344354071,/rosControlledBubbleRob,1.05951607227,0.0,0.0,0.0,0.0,0.0301633812487
1473349226380484477,501,1473349226379898217,/rosControlledBubbleRob,1.0127607584,0.0,0.0,0.0,0.0,-0.28207296133
1473349226416874580,502,1473349226416442283,/rosControlledBubbleRob,1.05762767792,0.0,0.0,0.0,0.0,-0.126133590937
1473349226452652024,503,1473349226452481799,/rosControlledBubbleRob,1.0773011446,0.0,0.0,0.0,0.0,0.354707241058
1473349226490289001,504,1473349226490104798,/rosControlledBubbleRob,1.02954947948,0.0,0.0,0.0,0.0,-0.0200247596949
1473349226526413641,505,1473349226525965311,/rosControlledBubbleRob,0.98389840126,0.0,0.0,0.0,0.0,-0.233350157738
1473349226561140271,506,1473349226560842639,/rosControlledBubbleRob,0.932444989681,0.0,0.0,0.0,0.0,-0.325418323278
1473349226597366607,507,1473349226596803626,/rosControlledBubbleRob,0.952661335468,0.0,0.0,0.0,0.0,-0.302500635386
1473349226638102366,508,1473349226637760522,/rosControlledBubbleRob,0.958726346493,0.0,0.0,0.0,0.0,0.196646019816
1473349226674714794,509,1473349226674423635,/rosControlledBubbleRob,1.00847148895,0.0,0.0,0.0,0.0,0.111064396799
1473349226711948478,510,1473349226711723778,/rosControlledBubbleRob,1.02115893364,0.0,0.0,0.0,0.0,0.290828049183
1473349226751380206,511,1473349226750861566,/rosControlledBubbleRob,1.02001845837,0.0,0.0,0.0,0.0,-0.386637926102
1473349226788118439,512,1473349226787829036,/rosControlledBubbleRob,1.00140249729,0.0,0.0,0.0,0.0,0.0590657740831
1473349226827106450,513,1473349226826444112,/rosControlledBubbleRob,1.06072115898,0.0,0.0,0.0,0.0,-0.0737883076072
1473349226861516698,514,1473349226861111842,/rosControlledBubbleRob,1.03734183311,0.0,0.0,0.0,0.0,0.163089454174
1473349226917685521,515,1473349226916379516,/rosControlledBubbleRob,0.97884786129,0.0,0.0,0.0,0.0,0.356633931398
1473349226969468538,516,1473349226968973680,/rosControlledBubbleRob,0.983654737473,0.0,0.0,0.0,0.0,0.859639942646
1473349227019660647,517,1473349227019302137,/rosControlledBubbleRob,1.00387203693,0.0,0.0,0.0,0.0,0.0991324484348
1473349227070364781,518,1473349227070137603,/rosControlledBubbleRob,1.02679491043,0.0,0.0,0.0,0.0,0.19484962523
1473349227121598515,519,1473349227121332989,/rosControlledBubbleRob,0.994790375233,0.0,0.0,0.0,0.0,-0.104000814259
1473349227167211431,520,1473349227166975048,/rosControlledBubbleRob,0.923376977444,0.0,0.0,0.0,0.0,-0.130491763353
1473349227208640566,521,1473349227208255994,/rosControlledBubbleRob,0.85383027792,0.0,0.0,0.0,0.0,-0.12602506578
1473349227245336366,522,1473349227244760428,/rosControlledBubbleRob,0.783843100071,0.0,0.0,0.0,0.0,-0.131341934204
1473349227282900769,523,1473349227282612173,/rosControlledBubbleRob,0.713560938835,0.0,0.0,0.0,0.0,-0.138574913144
1473349227319419391,524,1473349227319109067,/rosControlledBubbleRob,0.644468724728,0.0,0.0,0.0,0.0,-0.1229333058
1473349227358000613,525,1473349227357552758,/rosControlledBubbleRob,0.572930932045,0.0,0.0,0.0,0.0,-0.131261765957
1473349227394281507,526,1473349227394069883,/rosControlledBubbleRob,0.503182351589,0.0,0.0,0.0,0.0,-0.113852612674
1473349227433295400,527,1473349227432956768,/rosControlledBubbleRob,0.433019697666,0.0,0.0,0.0,0.0,-0.109697803855
1473349227469615586,528,1473349227469271814,/rosControlledBubbleRob,0.363117992878,0.0,0.0,0.0,0.0,-0.1075989604
1473349227509639784,529,1473349227509360029,/rosControlledBubbleRob,0.293244302273,0.0,0.0,0.0,0.0,-0.0963926836848
1473349227545267046,530,1473349227544793059,/rosControlledBubbleRob,0.223474606872,0.0,0.0,0.0,0.0,-0.103233344853
1473349227586762662,531,1473349227586492956,/rosControlledBubbleRob,0.147448331118,0.0,0.0,0.0,0.0,-0.0767162740231
1473349227625474907,532,1473349227625047075,/rosControlledBubbleRob,0.0906319841743,0.0,0.0,0.0,0.0,-0.106547445059
1473349227665817897,533,1473349227665482664,/rosControlledBubbleRob,0.110867999494,0.0,0.0,0.0,0.0,0.161418631673
1473349227704001199,534,1473349227703799369,/rosControlledBubbleRob,0.0488710142672,0.0,0.0,0.0,0.0,0.114243105054
1473349227741592451,535,1473349227741109265,/rosControlledBubbleRob,-0.0309717860073,0.0,0.0,0.0,0.0,0.0669010430574
1473349227793598820,536,1473349227793199367,/rosControlledBubbleRob,-0.108903743327,0.0,0.0,0.0,0.0,0.0268388967961
1473349227834822257,537,1473349227834486310,/rosControlledBubbleRob,-0.176872655749,0.0,0.0,0.0,0.0,0.556139171124
1473349227870411090,538,1473349227870111879,/rosControlledBubbleRob,-0.246310800314,0.0,0.0,0.0,0.0,0.528237462044
1473349227909730484,539,1473349227909439406,/rosControlledBubbleRob,-0.314491987228,0.0,0.0,0.0,0.0,0.470334231853
1473349227953072023,540,1473349227952814199,/rosControlledBubbleRob,-0.365154743195,0.0,0.0,0.0,0.0,0.316502451897
1473349227991717646,541,1473349227991456371,/rosControlledBubbleRob,-0.425113856792,0.0,0.0,0.0,0.0,0.329958379269
1473349228029076916,542,1473349228027914429,/rosControlledBubbleRob,-0.494986206293,0.0,0.0,0.0,0.0,0.309028625488
1473349228068304123,543,1473349228067483433,/rosControlledBubbleRob,-0.565417468548,0.0,0.0,0.0,0.0,0.289756149054
1473349228103804286,544,1473349228103580780,/rosControlledBubbleRob,-0.636488318443,0.0,0.0,0.0,0.0,0.276266038418
1473349228141679643,545,1473349228141384142,/rosControlledBubbleRob,-0.648344814777,0.0,0.0,0.0,0.0,-0.509460151196
1473349228182643558,546,1473349228182307849,/rosControlledBubbleRob,-0.600837111473,0.0,0.0,0.0,0.0,-0.70457136631
1473349228218659343,547,1473349228218221922,/rosControlledBubbleRob,-0.516328990459,0.0,0.0,0.0,0.0,-0.694142758846
1473349228270410674,548,1473349228270161478,/rosControlledBubbleRob,-0.451952517033,0.0,0.0,0.0,0.0,-0.6118735075
1473349228320157286,549,1473349228319963807,/rosControlledBubbleRob,-0.386712312698,0.0,0.0,0.0,0.0,-0.528378009796
1473349228372120417,550,1473349228371882261,/rosControlledBubbleRob,-0.325091421604,0.0,0.0,0.0,0.0,-0.417442023754
1473349228414055217,551,1473349228413755184,/rosControlledBubbleRob,-0.256189733744,0.0,0.0,0.0,0.0,-0.371460855007
1473349228450946215,552,1473349228450542215,/rosControlledBubbleRob,-0.190617695451,0.0,0.0,0.0,0.0,-0.25752723217
1473349228486558632,553,1473349228486291681,/rosControlledBubbleRob,-0.182930901647,0.0,0.0,0.0,0.0,-0.536947071552
1473349228521851277,554,1473349228521432230,/rosControlledBubbleRob,-0.23445174098,0.0,0.0,0.0,0.0,-0.7115701437
1473349228561329495,555,1473349228561052887,/rosControlledBubbleRob,-0.318078756332,0.0,0.0,0.0,0.0,-0.878340065479
1473349228597752851,556,1473349228597339823,/rosControlledBubbleRob,-0.392393350601,0.0,0.0,0.0,0.0,-0.911544501781
1473349228635642105,557,1473349228635458564,/rosControlledBubbleRob,-0.464585065842,0.0,0.0,0.0,0.0,-0.882766962051
1473349228673872058,558,1473349228673514520,/rosControlledBubbleRob,-0.496341437101,0.0,0.0,0.0,0.0,-0.291882038116
1473349228708450154,559,1473349228708042623,/rosControlledBubbleRob,-0.438192754984,0.0,0.0,0.0,0.0,-0.291245669127
1473349228743455172,560,1473349228743165583,/rosControlledBubbleRob,-0.362091898918,0.0,0.0,0.0,0.0,-0.260121285915
1473349228785036745,561,1473349228784825647,/rosControlledBubbleRob,-0.292236030102,0.0,0.0,0.0,0.0,-0.235987335443
1473349228825790956,562,1473349228825367411,/rosControlledBubbleRob,-0.21934863925,0.0,0.0,0.0,0.0,-0.149477109313
1473349228863537853,563,1473349228863146489,/rosControlledBubbleRob,-0.149566665292,0.0,0.0,0.0,0.0,-0.180220320821
1473349228919565232,564,1473349228919349704,/rosControlledBubbleRob,-0.116378255188,0.0,0.0,0.0,0.0,-0.402960896492
1473349228972278135,565,1473349228971901281,/rosControlledBubbleRob,-0.0858143940568,0.0,0.0,0.0,0.0,0.217481762171
1473349229030419612,566,1473349229028302829,/rosControlledBubbleRob,-0.124865725636,0.0,0.0,0.0,0.0,0.192572668195
1473349229071323943,567,1473349229070994326,/rosControlledBubbleRob,-0.0778068751097,0.0,0.0,0.0,0.0,0.0766704082489
1473349229110949398,568,1473349229110707419,/rosControlledBubbleRob,-0.0429839491844,0.0,0.0,0.0,0.0,0.431723117828
1473349229151885667,569,1473349229151646573,/rosControlledBubbleRob,-0.0616338476539,0.0,0.0,0.0,0.0,0.521327078342
1473349229189181030,570,1473349229188964621,/rosControlledBubbleRob,-0.0371355749667,0.0,0.0,0.0,0.0,0.299753159285
1473349229235903020,571,1473349229235192473,/rosControlledBubbleRob,-0.00255647441372,0.0,0.0,0.0,0.0,0.694935917854
1473349229278216957,572,1473349229277825723,/rosControlledBubbleRob,-0.0181408114731,0.0,0.0,0.0,0.0,-0.159231990576
1473349229318472105,573,1473349229318018319,/rosControlledBubbleRob,-0.0314280800521,0.0,0.0,0.0,0.0,-0.167765796185
1473349229354157181,574,1473349229353840224,/rosControlledBubbleRob,-0.0772521868348,0.0,0.0,0.0,0.0,0.116927206516
1473349229395546663,575,1473349229395185528,/rosControlledBubbleRob,-0.0437545143068,0.0,0.0,0.0,0.0,0.163230985403
1473349229433396510,576,1473349229433133267,/rosControlledBubbleRob,0.0232609789819,0.0,0.0,0.0,0.0,0.254694461823
1473349229471681001,577,1473349229471411412,/rosControlledBubbleRob,0.0176240261644,0.0,0.0,0.0,0.0,0.477315962315
1473349229506124490,578,1473349229505928039,/rosControlledBubbleRob,-0.000227908196393,0.0,0.0,0.0,0.0,0.892491519451
1473349229542593947,579,1473349229542179130,/rosControlledBubbleRob,0.0221954863518,0.0,0.0,0.0,0.0,0.418858408928
1473349229578353009,580,1473349229577918319,/rosControlledBubbleRob,-0.000254067854257,0.0,0.0,0.0,0.0,0.20860439539
1473349229618803694,581,1473349229618628399,/rosControlledBubbleRob,0.0254190191627,0.0,0.0,0.0,0.0,0.415850192308
1473349229656199784,582,1473349229656006254,/rosControlledBubbleRob,0.0327240042388,0.0,0.0,0.0,0.0,0.13536451757
1473349229692796360,583,1473349229692505852,/rosControlledBubbleRob,0.0546945482492,0.0,0.0,0.0,0.0,-0.166451498866
1473349229728605087,584,1473349229728059219,/rosControlledBubbleRob,0.0503786355257,0.0,0.0,0.0,0.0,0.302743047476
1473349229778164285,585,1473349229777947950,/rosControlledBubbleRob,0.011876498349,0.0,0.0,0.0,0.0,0.291994303465
1473349229832702962,586,1473349229832389299,/rosControlledBubbleRob,0.0416505299509,0.0,0.0,0.0,0.0,0.177134513855
1473349229888036819,587,1473349229887574235,/rosControlledBubbleRob,0.00950742419809,0.0,0.0,0.0,0.0,-0.202404350042
1473349229928375401,588,1473349229928112617,/rosControlledBubbleRob,-0.00317000201903,0.0,0.0,0.0,0.0,0.0911464616656
1473349229982279329,589,1473349229982020782,/rosControlledBubbleRob,-0.00236195512116,0.0,0.0,0.0,0.0,-0.531677663326
1473349230018878818,590,1473349230018481936,/rosControlledBubbleRob,0.00552259245887,0.0,0.0,0.0,0.0,-1.15095603466
1473349230053615860,591,1473349230053382596,/rosControlledBubbleRob,-0.0327951833606,0.0,0.0,0.0,0.0,-0.102856867015
1473349230093539628,592,1473349230093254603,/rosControlledBubbleRob,0.0290978681296,0.0,0.0,0.0,0.0,0.27576893568
1473349230131763899,593,1473349230131309720,/rosControlledBubbleRob,0.0259162075818,0.0,0.0,0.0,0.0,-0.467866539955
1473349230183487601,594,1473349230183175858,/rosControlledBubbleRob,-0.02139971219,0.0,0.0,0.0,0.0,-0.554894089699
1473349230226975345,595,1473349230226690124,/rosControlledBubbleRob,-0.0474485903978,0.0,0.0,0.0,0.0,-1.04559540749
1473349230266109159,596,1473349230265808559,/rosControlledBubbleRob,0.000737401947845,0.0,0.0,0.0,0.0,-1.01890766621
1473349230304201009,597,1473349230303725202,/rosControlledBubbleRob,0.0374360792339,0.0,0.0,0.0,0.0,-0.93117827177
1473349230342422379,598,1473349230342145247,/rosControlledBubbleRob,0.00293514598161,0.0,0.0,0.0,0.0,-0.966262936592
1473349230377812212,599,1473349230377505923,/rosControlledBubbleRob,-0.0467798151076,0.0,0.0,0.0,0.0,-0.851938128471
