%time,field.header.seq,field.header.stamp,field.header.frame_id,field.twist.linear.x,field.twist.linear.y,field.twist.linear.z,field.twist.angular.x,field.twist.angular.y,field.twist.angular.z
1473349269504564371,93,1473349269504379404,/rosControlledBubbleRob,0.0894860774279,0.0,0.0,0.0,0.0,-0.43333658576
1473349269564679816,94,1473349269564348614,/rosControlledBubbleRob,0.0606282949448,0.0,0.0,0.0,0.0,-0.663891494274
1473349269605022850,95,1473349269604642273,/rosControlledBubbleRob,0.0598686151206,0.0,0.0,0.0,0.0,-0.370014727116
1473349269642589180,96,1473349269642392765,/rosControlledBubbleRob,0.10029181838,0.0,0.0,0.0,0.0,-0.228695303202
1473349269685166184,97,1473349269684881500,/rosControlledBubbleRob,0.0641790479422,0.0,0.0,0.0,0.0,-0.259706348181
1473349269729168018,98,1473349269728839964,/rosControlledBubbleRob,0.0291923936456,0.0,0.0,0.0,0.0,0.404894560575
1473349269767496704,99,1473349269767274750,/rosControlledBubbleRob,0.032433360815,0.0,0.0,0.0,0.0,-0.102900646627
1473349269815432354,100,1473349269814623011,/rosControlledBubbleRob,-0.0186529029161,0.0,0.0,0.0,0.0,0.0872128903866
1473349269870137344,101,1473349269869560626,/rosControlledBubbleRob,-0.0137648712844,0.0,0.0,0.0,0.0,-0.332924097776
1473349269909241124,102,1473349269908993123,/rosControlledBubbleRob,-0.0427446998656,0.0,0.0,0.0,0.0,-0.245384901762
1473349269944445358,103,1473349269944233020,/rosControlledBubbleRob,0.0113993249834,0.0,0.0,0.0,0.0,-0.139065399766
1473349270141699650,104,1473349270141216652,/rosControlledBubbleRob,-0.00844946224242,0.0,0.0,0.0,0.0,-0.589131474495
1473349270201170364,105,1473349270200936162,/rosControlledBubbleRob,0.0186615511775,0.0,0.0,0.0,0.0,-0.669530272484
1473349270242560568,106,1473349270242307745,/rosControlledBubbleRob,0.0067125945352,0.0,0.0,0.0,0.0,-0.170816332102
1473349270284413559,107,1473349270284092715,/rosControlledBubbleRob,0.0534469150007,0.0,0.0,0.0,0.0,-0.0757230296731
1473349270323652599,108,1473349270323372081,/rosControlledBubbleRob,0.0602336265147,0.0,0.0,0.0,0.0,0.57969224453
1473349270364447535,109,1473349270363788954,/rosControlledBubbleRob,0.0312135778368,0.0,0.0,0.0,0.0,0.412578850985
1473349270409300665,110,1473349270408947938,/rosControlledBubbleRob,0.0555826723576,0.0,0.0,0.0,0.0,0.236850559711
1473349270456638808,111,1473349270456132366,/rosControlledBubbleRob,0.0655471011996,0.0,0.0,0.0,0.0,0.295577615499
1473349270500520162,112,1473349270500316804,/rosControlledBubbleRob,0.0578309781849,0.0,0.0,0.0,0.0,0.667022049427
1473349270540813136,113,1473349270540561358,/rosControlledBubbleRob,0.128108039498,0.0,0.0,0.0,0.0,0.708422422409
1473349270579279748,114,1473349270578811170,/rosControlledBubbleRob,0.20570974052,0.0,0.0,0.0,0.0,1.01036930084
1473349270633931251,115,1473349270633588085,/rosControlledBubbleRob,0.198847532272,0.0,0.0,0.0,0.0,0.402850180864
1473349270688767460,116,1473349270688489347,/rosControlledBubbleRob,0.277912348509,0.0,0.0,0.0,0.0,0.537649452686
1473349270730588623,117,1473349270730114612,/rosControlledBubbleRob,0.326767712831,0.0,0.0,0.0,0.0,0.329439431429
1473349270773929652,118,1473349270773347625,/rosControlledBubbleRob,0.394789069891,0.0,0.0,0.0,0.0,0.401430815458
1473349270813214239,119,1473349270812761359,/rosControlledBubbleRob,0.40758523345,0.0,0.0,0.0,0.0,0.292521864176
1473349270858614069,120,1473349270858288645,/rosControlledBubbleRob,0.363131970167,0.0,0.0,0.0,0.0,-0.0172282028943
1473349270913094847,121,1473349270912412988,/rosControlledBubbleRob,0.425195604563,0.0,0.0,0.0,0.0,0.333548426628
1473349270948812452,122,1473349270948543946,/rosControlledBubbleRob,0.432268202305,0.0,0.0,0.0,0.0,-0.372642546892
1473349270987592775,123,1473349270987370678,/rosControlledBubbleRob,0.42973741889,0.0,0.0,0.0,0.0,-0.00653397245333
1473349271022962608,124,1473349271022761167,/rosControlledBubbleRob,0.412793159485,0.0,0.0,0.0,0.0,0.705803453922
1473349271061557437,125,1473349271061274354,/rosControlledBubbleRob,0.408196181059,0.0,0.0,0.0,0.0,0.299756020308
1473349271098210410,126,1473349271097882057,/rosControlledBubbleRob,0.32843631506,0.0,0.0,0.0,0.0,0.36170232296
1473349271139672579,127,1473349271139391513,/rosControlledBubbleRob,0.240052312613,0.0,0.0,0.0,0.0,0.4971165061
1473349271175860266,128,1473349271175576497,/rosControlledBubbleRob,0.165688544512,0.0,0.0,0.0,0.0,0.48459109664
1473349271212616434,129,1473349271212354593,/rosControlledBubbleRob,0.112934924662,0.0,0.0,0.0,0.0,0.232475429773
1473349271250159603,130,1473349271249850512,/rosControlledBubbleRob,0.0635066479445,0.0,0.0,0.0,0.0,0.0810370221734
1473349271287415751,131,1473349271287134469,/rosControlledBubbleRob,0.0417337194085,0.0,0.0,0.0,0.0,-0.489659816027
1473349271322337957,132,1473349271321998956,/rosControlledBubbleRob,0.0212228372693,0.0,0.0,0.0,0.0,-0.0281854756176
1473349271360512570,133,1473349271360217065,/rosControlledBubbleRob,0.0287206973881,0.0,0.0,0.0,0.0,-0.49152675271
1473349271398320558,134,1473349271397990342,/rosControlledBubbleRob,-0.0201643239707,0.0,0.0,0.0,0.0,-0.649593710899
1473349271435620408,135,1473349271435270297,/rosControlledBubbleRob,-0.108342193067,0.0,0.0,0.0,0.0,-0.826614737511
1473349271472399617,136,1473349271472079586,/rosControlledBubbleRob,-0.182890161872,0.0,0.0,0.0,0.0,-0.748475730419
1473349271510598211,137,1473349271510441195,/rosControlledBubbleRob,-0.245346486568,0.0,0.0,0.0,0.0,-0.651751756668
1473349271564652122,138,1473349271564415304,/rosControlledBubbleRob,-0.314453005791,0.0,0.0,0.0,0.0,-0.632825434208
1473349271618931926,139,1473349271618670593,/rosControlledBubbleRob,-0.398470044136,0.0,0.0,0.0,0.0,-0.791714549065
1473349271657213056,140,1473349271656836846,/rosControlledBubbleRob,-0.466072410345,0.0,0.0,0.0,0.0,-0.724488914013
1473349271710433381,141,1473349271709980659,/rosControlledBubbleRob,-0.530660331249,0.0,0.0,0.0,0.0,-0.681226372719
1473349271747852121,142,1473349271747098353,/rosControlledBubbleRob,-0.594533026218,0.0,0.0,0.0,0.0,-0.603409051895
1473349271784314844,143,1473349271783975240,/rosControlledBubbleRob,-0.662844657898,0.0,0.0,0.0,0.0,-0.548277020454
1473349271826667457,144,1473349271826291284,/rosControlledBubbleRob,-0.732268810272,0.0,0.0,0.0,0.0,-0.494716644287
1473349271865421022,145,1473349271864641335,/rosControlledBubbleRob,-0.802782535553,0.0,0.0,0.0,0.0,-0.448692321777
1473349271906759607,146,1473349271906450434,/rosControlledBubbleRob,-0.871124327183,0.0,0.0,0.0,0.0,-0.385692000389
1473349271947076305,147,1473349271946802350,/rosControlledBubbleRob,-0.910370290279,0.0,0.0,0.0,0.0,0.154956266284
1473349271983277975,148,1473349271982975009,/rosControlledBubbleRob,-0.907070457935,0.0,0.0,0.0,0.0,0.0635958462954
1473349272021398594,149,1473349272021010086,/rosControlledBubbleRob,-0.904148340225,0.0,0.0,0.0,0.0,-0.317961513996
1473349272075817830,150,1473349272075582944,/rosControlledBubbleRob,-0.925819039345,0.0,0.0,0.0,0.0,0.381438195705
1473349272130665479,151,1473349272130461476,/rosControlledBubbleRob,-0.958144962788,0.0,0.0,0.0,0.0,0.349789202213
1473349272186436005,152,1473349272186171369,/rosControlledBubbleRob,-0.919286429882,0.0,0.0,0.0,0.0,0.232439100742
1473349272228341654,153,1473349272227861243,/rosControlledBubbleRob,-0.95830565691,0.0,0.0,0.0,0.0,0.269641429186
1473349272268475499,154,1473349272267686595,/rosControlledBubbleRob,-0.978739857674,0.0,0.0,0.0,0.0,0.692508399487
1473349272309677724,155,1473349272309251480,/rosControlledBubbleRob,-0.930845916271,0.0,0.0,0.0,0.0,0.4566360116
1473349272344825771,156,1473349272344359709,/rosControlledBubbleRob,-0.848857104778,0.0,0.0,0.0,0.0,0.543154358864
1473349272387946859,157,1473349272387622347,/rosControlledBubbleRob,-0.764707505703,0.0,0.0,0.0,0.0,0.603522956371
1473349272426587945,158,1473349272426313665,/rosControlledBubbleRob,-0.697448551655,0.0,0.0,0.0,0.0,0.519201695919
1473349272466569594,159,1473349272466354941,/rosControlledBubbleRob,-0.624560654163,0.0,0.0,0.0,0.0,0.469067305326
1473349272510262424,160,1473349272510060171,/rosControlledBubbleRob,-0.549659371376,0.0,0.0,0.0,0.0,0.453748226166
1473349272549463044,161,1473349272549053300,/rosControlledBubbleRob,-0.48363634944,0.0,0.0,0.0,0.0,0.408923476934
1473349272593022609,162,1473349272592539097,/rosControlledBubbleRob,-0.556889235973,0.0,0.0,0.0,0.0,-0.4050154984
1473349272634753076,163,1473349272634268761,/rosControlledBubbleRob,-0.609269142151,0.0,0.0,0.0,0.0,-0.623926997185
1473349272674303113,164,1473349272673863189,/rosControlledBubbleRob,-0.667913138866,0.0,0.0,0.0,0.0,-0.619927406311
1473349272718496738,165,1473349272718208603,/rosControlledBubbleRob,-0.730308294296,0.0,0.0,0.0,0.0,-0.4981508255
1473349272756218417,166,1473349272755936552,/rosControlledBubbleRob,-0.785184264183,0.0,0.0,0.0,0.0,-0.399001687765
1473349272809045891,167,1473349272808826626,/rosControlledBubbleRob,-0.822643041611,0.0,0.0,0.0,0.0,-0.155950114131
1473349272852736253,168,1473349272852477743,/rosControlledBubbleRob,-0.854777693748,0.0,0.0,0.0,0.0,-0.731862425804
1473349272902874314,169,1473349272902581344,/rosControlledBubbleRob,-0.879678726196,0.0,0.0,0.0,0.0,-0.560727834702
1473349272944779860,170,1473349272944307388,/rosControlledBubbleRob,-0.922530174255,0.0,0.0,0.0,0.0,-0.721133053303
1473349272987432083,171,1473349272987208258,/rosControlledBubbleRob,-0.971094071865,0.0,0.0,0.0,0.0,-0.801386713982
1473349273023462841,172,1473349273023137413,/rosControlledBubbleRob,-0.942999958992,0.0,0.0,0.0,0.0,-0.0949452370405
1473349273059873910,173,1473349273059606119,/rosControlledBubbleRob,-0.920551598072,0.0,0.0,0.0,0.0,0.161137029529
1473349273096300800,174,1473349273096055933,/rosControlledBubbleRob,-0.89451944828,0.0,0.0,0.0,0.0,-0.050246797502
1473349273137353652,175,1473349273137145083,/rosControlledBubbleRob,-0.91154897213,0.0,0.0,0.0,0.0,-0.00100588379428
1473349273173543534,176,1473349273173197619,/rosControlledBubbleRob,-0.931150376797,0.0,0.0,0.0,0.0,-0.484989345074
1473349273210686710,177,1473349273210489404,/rosControlledBubbleRob,-0.921802043915,0.0,0.0,0.0,0.0,0.361248970032
1473349273247025512,178,1473349273246689230,/rosControlledBubbleRob,-0.963440656662,0.0,0.0,0.0,0.0,-0.0147404149175
1473349273285920939,179,1473349273285720005,/rosControlledBubbleRob,-1.0181684494,0.0,0.0,0.0,0.0,0.275207161903
1473349273321356090,180,1473349273320941169,/rosControlledBubbleRob,-1.00861144066,0.0,0.0,0.0,0.0,0.0465253442526
1473349273359060939,181,1473349273358682064,/rosControlledBubbleRob,-0.97650629282,0.0,0.0,0.0,0.0,-0.0757073536515
1473349273392973545,182,1473349273392584195,/rosControlledBubbleRob,-1.00441765785,0.0,0.0,0.0,0.0,-0.0715526640415
1473349273429058722,183,1473349273428812198,/rosControlledBubbleRob,-0.97770601511,0.0,0.0,0.0,0.0,-0.0137883760035
1473349273466079548,184,1473349273465820326,/rosControlledBubbleRob,-0.962924659252,0.0,0.0,0.0,0.0,-0.2980427742
1473349273501157584,185,1473349273500885697,/rosControlledBubbleRob,-0.956002414227,0.0,0.0,0.0,0.0,0.0865446105599
1473349273537386804,186,1473349273537063032,/rosControlledBubbleRob,-0.910780847073,0.0,0.0,0.0,0.0,-0.163007855415
1473349273574390840,187,1473349273574089998,/rosControlledBubbleRob,-0.95135062933,0.0,0.0,0.0,0.0,-0.401305615902
1473349273623186261,188,1473349273622927343,/rosControlledBubbleRob,-0.941115796566,0.0,0.0,0.0,0.0,0.011252223514
1473349273663324170,189,1473349273663107259,/rosControlledBubbleRob,-0.944911956787,0.0,0.0,0.0,0.0,-0.580950081348
1473349273714861749,190,1473349273714637913,/rosControlledBubbleRob,-0.93876606226,0.0,0.0,0.0,0.0,0.239283621311
1473349273766499874,191,1473349273766306260,/rosControlledBubbleRob,-0.940210103989,0.0,0.0,0.0,0.0,-0.0149274403229
1473349273803145747,192,1473349273802932740,/rosControlledBubbleRob,-0.997041285038,0.0,0.0,0.0,0.0,0.0194553472102
1473349273841100041,193,1473349273840721006,/rosControlledBubbleRob,-1.02803051472,0.0,0.0,0.0,0.0,-0.334013700485
1473349273877930416,194,1473349273877658591,/rosControlledBubbleRob,-1.07422316074,0.0,0.0,0.0,0.0,-0.199278891087
1473349273916026705,195,1473349273915810369,/rosControlledBubbleRob,-1.031468153,0.0,0.0,0.0,0.0,-0.0885373130441
1473349273952003465,196,1473349273951711476,/rosControlledBubbleRob,-1.02114534378,0.0,0.0,0.0,0.0,-0.653255105019
1473349273987754324,197,1473349273987462585,/rosControlledBubbleRob,-1.02434432507,0.0,0.0,0.0,0.0,-0.0702825039625
1473349274024991734,198,1473349274024582074,/rosControlledBubbleRob,-1.09071302414,0.0,0.0,0.0,0.0,0.00671121338382
1473349274078456132,199,1473349274077770636,/rosControlledBubbleRob,-1.09270751476,0.0,0.0,0.0,0.0,-0.13842600584
1473349274117405494,200,1473349274117083785,/rosControlledBubbleRob,-1.05209386349,0.0,0.0,0.0,0.0,-0.130627661943
1473349274152428468,201,1473349274152233434,/rosControlledBubbleRob,-0.987146317959,0.0,0.0,0.0,0.0,-0.0741464197636
1473349274191166437,202,1473349274190786530,/rosControlledBubbleRob,-1.00932443142,0.0,0.0,0.0,0.0,-0.00950085371733
1473349274230665257,203,1473349274230436847,/rosControlledBubbleRob,-1.03060531616,0.0,0.0,0.0,0.0,-0.563002169132
1473349274267323558,204,1473349274267154334,/rosControlledBubbleRob,-0.998799562454,0.0,0.0,0.0,0.0,-0.688631594181
1473349274315460758,205,1473349274315026271,/rosControlledBubbleRob,-0.926865160465,0.0,0.0,0.0,0.0,-0.518641531467
1473349274362276702,206,1473349274361902795,/rosControlledBubbleRob,-0.857471287251,0.0,0.0,0.0,0.0,-0.367718607187
1473349274409836481,207,1473349274409654776,/rosControlledBubbleRob,-0.784934341908,0.0,0.0,0.0,0.0,-0.273527860641
1473349274461570137,208,1473349274461313235,/rosControlledBubbleRob,-0.717524111271,0.0,0.0,0.0,0.0,-0.246738344431
1473349274513478562,209,1473349274512949071,/rosControlledBubbleRob,-0.645182132721,0.0,0.0,0.0,0.0,-0.207294508815
1473349274552882043,210,1473349274552613759,/rosControlledBubbleRob,-0.575602352619,0.0,0.0,0.0,0.0,-0.182569846511
1473349274590936926,211,1473349274590647121,/rosControlledBubbleRob,-0.503142476082,0.0,0.0,0.0,0.0,-0.184086754918
1473349274628321535,212,1473349274627974375,/rosControlledBubbleRob,-0.426327258348,0.0,0.0,0.0,0.0,-0.321458011866
1473349274665366739,213,1473349274664981899,/rosControlledBubbleRob,-0.356869280338,0.0,0.0,0.0,0.0,-0.329034090042
1473349274703158583,214,1473349274702967303,/rosControlledBubbleRob,-0.288064956665,0.0,0.0,0.0,0.0,-0.321547865868
1473349274739816093,215,1473349274739601153,/rosControlledBubbleRob,-0.219011425972,0.0,0.0,0.0,0.0,-0.309452712536
1473349274777670190,216,1473349274777498072,/rosControlledBubbleRob,-0.138322114944,0.0,0.0,0.0,0.0,-0.299652278423
1473349274827985529,217,1473349274827716711,/rosControlledBubbleRob,-0.0580097921193,0.0,0.0,0.0,0.0,-0.0392888523638
1473349274867171318,218,1473349274866859516,/rosControlledBubbleRob,0.0122488569468,0.0,0.0,0.0,0.0,-0.0114907696843
1473349274903088457,219,1473349274902913279,/rosControlledBubbleRob,0.0917391255498,0.0,0.0,0.0,0.0,0.0387681908906
1473349274939919356,220,1473349274939693277,/rosControlledBubbleRob,0.134049922228,0.0,0.0,0.0,0.0,0.380233317614
1473349274976870401,221,1473349274976594259,/rosControlledBubbleRob,0.209120467305,0.0,0.0,0.0,0.0,0.497935265303
1473349275011182474,222,1473349275010890061,/rosControlledBubbleRob,0.281135976315,0.0,0.0,0.0,0.0,0.556802213192
1473349275047367629,223,1473349275047037197,/rosControlledBubbleRob,0.355146408081,0.0,0.0,0.0,0.0,0.56431800127
1473349275085329472,224,1473349275085164730,/rosControlledBubbleRob,0.418812662363,0.0,0.0,0.0,0.0,0.510384559631
1473349275121646642,225,1473349275121311173,/rosControlledBubbleRob,0.486530512571,0.0,0.0,0.0,0.0,0.585788428783
1473349275159029479,226,1473349275158672635,/rosControlledBubbleRob,0.521236121655,0.0,0.0,0.0,0.0,0.277079075575
1473349275196452618,227,1473349275196052874,/rosControlledBubbleRob,0.559112787247,0.0,0.0,0.0,0.0,0.00820193253458
1473349275237237515,228,1473349275237037357,/rosControlledBubbleRob,0.58640140295,0.0,0.0,0.0,0.0,-0.661170661449
1473349275273653619,229,1473349275273132153,/rosControlledBubbleRob,0.617750287056,0.0,0.0,0.0,0.0,0.0510947071016
1473349275311342390,230,1473349275311032079,/rosControlledBubbleRob,0.654159069061,0.0,0.0,0.0,0.0,0.556012451649
1473349275347532067,231,1473349275347221378,/rosControlledBubbleRob,0.678335130215,0.0,0.0,0.0,0.0,0.385058403015
1473349275385173639,232,1473349275384277989,/rosControlledBubbleRob,0.653380274773,0.0,0.0,0.0,0.0,0.119803577662
1473349275421237071,233,1473349275420997402,/rosControlledBubbleRob,0.605706095695,0.0,0.0,0.0,0.0,0.196176156402
1473349275456821073,234,1473349275456548727,/rosControlledBubbleRob,0.626525163651,0.0,0.0,0.0,0.0,-0.00591878406703
1473349275506398658,235,1473349275506156945,/rosControlledBubbleRob,0.639062166214,0.0,0.0,0.0,0.0,-0.590055465698
1473349275562799219,236,1473349275562562548,/rosControlledBubbleRob,0.642578423023,0.0,0.0,0.0,0.0,0.293801814318
1473349275600854395,237,1473349275600589943,/rosControlledBubbleRob,0.647111415863,0.0,0.0,0.0,0.0,1.0367718935
1473349275636341174,238,1473349275636161236,/rosControlledBubbleRob,0.676818132401,0.0,0.0,0.0,0.0,0.200603067875
1473349275672290802,239,1473349275671571947,/rosControlledBubbleRob,0.718646764755,0.0,0.0,0.0,0.0,0.490694522858
1473349275710423296,240,1473349275710148903,/rosControlledBubbleRob,0.711512565613,0.0,0.0,0.0,0.0,-0.0258170496672
1473349275747837632,241,1473349275747569990,/rosControlledBubbleRob,0.74381172657,0.0,0.0,0.0,0.0,0.322270691395
1473349275786630460,242,1473349275786328872,/rosControlledBubbleRob,0.761773586273,0.0,0.0,0.0,0.0,0.617651283741
1473349275823087994,243,1473349275822903613,/rosControlledBubbleRob,0.760414123535,0.0,0.0,0.0,0.0,-0.159675598145
1473349275858749545,244,1473349275858449445,/rosControlledBubbleRob,0.749784946442,0.0,0.0,0.0,0.0,-0.194435685873
1473349275894859905,245,1473349275894584870,/rosControlledBubbleRob,0.818436145782,0.0,0.0,0.0,0.0,0.0166370198131
1473349275930303116,246,1473349275929974337,/rosControlledBubbleRob,0.859539568424,0.0,0.0,0.0,0.0,-0.0283191334456
1473349275965948206,247,1473349275965671174,/rosControlledBubbleRob,0.893286406994,0.0,0.0,0.0,0.0,0.0649159625173
1473349276001769302,248,1473349276001095101,/rosControlledBubbleRob,0.908163547516,0.0,0.0,0.0,0.0,-0.369670659304
1473349276038840903,249,1473349276038593793,/rosControlledBubbleRob,0.946388661861,0.0,0.0,0.0,0.0,-0.568831026554
1473349276074628867,250,1473349276074313077,/rosControlledBubbleRob,0.985924720764,0.0,0.0,0.0,0.0,-0.0136835463345
1473349276114129650,251,1473349276113800894,/rosControlledBubbleRob,1.01776731014,0.0,0.0,0.0,0.0,0.385441839695
1473349276148892275,252,1473349276148444848,/rosControlledBubbleRob,1.01830077171,0.0,0.0,0.0,0.0,-0.0426557324827
1473349276186190399,253,1473349276185900217,/rosControlledBubbleRob,1.02114295959,0.0,0.0,0.0,0.0,-0.157276421785
1473349276227687047,254,1473349276227416256,/rosControlledBubbleRob,1.02101659775,0.0,0.0,0.0,0.0,0.449808657169
1473349276264935294,255,1473349276264370900,/rosControlledBubbleRob,1.01849341393,0.0,0.0,0.0,0.0,0.416790306568
1473349276303366524,256,1473349276303190825,/rosControlledBubbleRob,0.978035211563,0.0,0.0,0.0,0.0,0.051992662251
1473349276351753445,257,1473349276351554402,/rosControlledBubbleRob,0.94699293375,0.0,0.0,0.0,0.0,0.412678986788
1473349276405846671,258,1473349276405638978,/rosControlledBubbleRob,0.971455216408,0.0,0.0,0.0,0.0,0.342754542828
1473349276459807423,259,1473349276459574541,/rosControlledBubbleRob,1.00151729584,0.0,0.0,0.0,0.0,-0.174345016479
1473349276503310787,260,1473349276503107782,/rosControlledBubbleRob,0.956193208694,0.0,0.0,0.0,0.0,-0.16531945765
1473349276540523767,261,1473349276540353514,/rosControlledBubbleRob,0.891186237335,0.0,0.0,0.0,0.0,0.0650300830603
1473349276576883636,262,1473349276575689909,/rosControlledBubbleRob,0.920039594173,0.0,0.0,0.0,0.0,0.00995067413896
1473349276611498994,263,1473349276611276494,/rosControlledBubbleRob,0.945406913757,0.0,0.0,0.0,0.0,-0.368402212858
1473349276649243370,264,1473349276649017303,/rosControlledBubbleRob,0.929429471493,0.0,0.0,0.0,0.0,-0.420914977789
1473349276685097483,265,1473349276684819320,/rosControlledBubbleRob,0.965842962265,0.0,0.0,0.0,0.0,-0.120613314211
1473349276723279109,266,1473349276722953970,/rosControlledBubbleRob,0.97635525465,0.0,0.0,0.0,0.0,0.155150726438
1473349276761162590,267,1473349276760804935,/rosControlledBubbleRob,0.993375003338,0.0,0.0,0.0,0.0,-0.295157104731
1473349276796260272,268,1473349276795869658,/rosControlledBubbleRob,0.958044826984,0.0,0.0,0.0,0.0,-0.6231533885
1473349276835122063,269,1473349276834768518,/rosControlledBubbleRob,0.953228473663,0.0,0.0,0.0,0.0,-0.139023542404
1473349276877754145,270,1473349276877213548,/rosControlledBubbleRob,0.97085082531,0.0,0.0,0.0,0.0,-0.67957252264
1473349276917710323,271,1473349276917346024,/rosControlledBubbleRob,0.969725906849,0.0,0.0,0.0,0.0,-0.674497485161
1473349276954934789,272,1473349276954610885,/rosControlledBubbleRob,0.929167211056,0.0,0.0,0.0,0.0,-0.487601369619
1473349276994210764,273,1473349276993490164,/rosControlledBubbleRob,0.878706395626,0.0,0.0,0.0,0.0,-0.375759094954
1473349277031255235,274,1473349277030796737,/rosControlledBubbleRob,0.805619478226,0.0,0.0,0.0,0.0,-0.399681091309
1473349277070646821,275,1473349277070444450,/rosControlledBubbleRob,0.735369265079,0.0,0.0,0.0,0.0,-0.520398616791
1473349277123933922,276,1473349277122883908,/rosControlledBubbleRob,0.675471544266,0.0,0.0,0.0,0.0,-0.520125448704
1473349277161636464,277,1473349277161312846,/rosControlledBubbleRob,0.559199988842,0.0,0.0,0.0,0.0,-0.440131187439
1473349277196740145,278,1473349277196296093,/rosControlledBubbleRob,0.524118065834,0.0,0.0,0.0,0.0,-0.743472218513
1473349277234509245,279,1473349277234199603,/rosControlledBubbleRob,0.453489691019,0.0,0.0,0.0,0.0,-0.615062355995
1473349277271776745,280,1473349277271292089,/rosControlledBubbleRob,0.385250389576,0.0,0.0,0.0,0.0,-0.631570696831
1473349277308790050,281,1473349277308414622,/rosControlledBubbleRob,0.311179339886,0.0,0.0,0.0,0.0,-0.723724365234
1473349277345186714,282,1473349277344677684,/rosControlledBubbleRob,0.245179906487,0.0,0.0,0.0,0.0,-0.725026905537
1473349277381931864,283,1473349277381650588,/rosControlledBubbleRob,0.162976756692,0.0,0.0,0.0,0.0,-0.898962378502
1473349277420039573,284,1473349277419884452,/rosControlledBubbleRob,0.0923030599952,0.0,0.0,0.0,0.0,-0.900531470776
1473349277476451952,285,1473349277476225602,/rosControlledBubbleRob,0.0192114282399,0.0,0.0,0.0,0.0,-0.823706388474
1473349277528797367,286,1473349277528446519,/rosControlledBubbleRob,-0.0482868514955,0.0,0.0,0.0,0.0,-0.848703444004
1473349277567021391,287,1473349277566750286,/rosControlledBubbleRob,-0.125557020307,0.0,0.0,0.0,0.0,-0.837014973164
1473349277603028594,288,1473349277602794605,/rosControlledBubbleRob,-0.19167894125,0.0,0.0,0.0,0.0,-0.728772640228
1473349277640106451,289,1473349277639785373,/rosControlledBubbleRob,-0.261926263571,0.0,0.0,0.0,0.0,-0.656979382038
1473349277677209764,290,1473349277676804653,/rosControlledBubbleRob,-0.327855169773,0.0,0.0,0.0,0.0,-0.699851691723
1473349277713502616,291,1473349277713204214,/rosControlledBubbleRob,-0.43005207181,0.0,0.0,0.0,0.0,-0.610645592213
1473349277749847728,292,1473349277749594090,/rosControlledBubbleRob,-0.527958512306,0.0,0.0,0.0,0.0,-0.72043722868
1473349277786036055,293,1473349277785664409,/rosControlledBubbleRob,-0.583056390285,0.0,0.0,0.0,0.0,-0.796648561954
1473349277825572194,294,1473349277825189351,/rosControlledBubbleRob,-0.627039551735,0.0,0.0,0.0,0.0,-0.756118714809
1473349277861468379,295,1473349277860889322,/rosControlledBubbleRob,-0.690590202808,0.0,0.0,0.0,0.0,-0.724558711052
1473349277906395510,296,1473349277906152403,/rosControlledBubbleRob,-0.755719840527,0.0,0.0,0.0,0.0,-0.529646933079
1473349277941808401,297,1473349277941529417,/rosControlledBubbleRob,-0.82453328371,0.0,0.0,0.0,0.0,-0.427816301584
1473349277996739630,298,1473349277996358467,/rosControlledBubbleRob,-0.89995265007,0.0,0.0,0.0,0.0,-0.364770591259
1473349278032333633,299,1473349278031941935,/rosControlledBubbleRob,-0.955417513847,0.0,0.0,0.0,0.0,-0.671674489975
1473349278068754782,300,1473349278068404619,/rosControlledBubbleRob,-0.961941361427,0.0,0.0,0.0,0.0,0.0211356952786
1473349278107862839,301,1473349278107475818,/rosControlledBubbleRob,-1.02970826626,0.0,0.0,0.0,0.0,0.137767493725
1473349278143400390,302,1473349278143182496,/rosControlledBubbleRob,-1.01077163219,0.0,0.0,0.0,0.0,-0.0619370229542
1473349278181618621,303,1473349278181208983,/rosControlledBubbleRob,-1.02775549889,0.0,0.0,0.0,0.0,-0.181575253606
1473349278216296951,304,1473349278216042037,/rosControlledBubbleRob,-1.01266884804,0.0,0.0,0.0,0.0,0.100708000362
1473349278254744183,305,1473349278254492625,/rosControlledBubbleRob,-0.947336673737,0.0,0.0,0.0,0.0,0.168463602662
1473349278290470988,306,1473349278290152233,/rosControlledBubbleRob,-0.950015306473,0.0,0.0,0.0,0.0,-0.442410200834
1473349278330285568,307,1473349278329897726,/rosControlledBubbleRob,-0.971679747105,0.0,0.0,0.0,0.0,-0.444570273161
1473349278366294673,308,1473349278365879043,/rosControlledBubbleRob,-0.981162786484,0.0,0.0,0.0,0.0,0.387189865112
1473349278400674805,309,1473349278400251359,/rosControlledBubbleRob,-0.991378188133,0.0,0.0,0.0,0.0,0.755442857742
1473349278436622039,310,1473349278436369124,/rosControlledBubbleRob,-1.04265427589,0.0,0.0,0.0,0.0,0.366200327873
1473349278473704387,311,1473349278473400689,/rosControlledBubbleRob,-1.00217592716,0.0,0.0,0.0,0.0,0.360553383827
1473349278508580525,312,1473349278508312265,/rosControlledBubbleRob,-0.9476557374,0.0,0.0,0.0,0.0,0.0722678229213
1473349278546533418,313,1473349278546260028,/rosControlledBubbleRob,-0.945629894733,0.0,0.0,0.0,0.0,-0.479114711285
1473349278599754516,314,1473349278599514825,/rosControlledBubbleRob,-0.993281006813,0.0,0.0,0.0,0.0,-0.288151651621
1473349278653646939,315,1473349278653323235,/rosControlledBubbleRob,-1.06532227993,0.0,0.0,0.0,0.0,-0.134030073881
1473349278707068975,316,1473349278706699767,/rosControlledBubbleRob,-1.06905412674,0.0,0.0,0.0,0.0,-0.550875782967
1473349278745256799,317,1473349278744800522,/rosControlledBubbleRob,-1.02122175694,0.0,0.0,0.0,0.0,-0.373714327812
1473349278801252990,318,1473349278800764790,/rosControlledBubbleRob,-0.984061121941,0.0,0.0,0.0,0.0,-0.549167215824
1473349278836820458,319,1473349278836514538,/rosControlledBubbleRob,-0.97827476263,0.0,0.0,0.0,0.0,-0.135491266847
1473349278874533369,320,1473349278874071610,/rosControlledBubbleRob,-1.01800537109,0.0,0.0,0.0,0.0,-0.109674215317
1473349278918315436,321,1473349278918121380,/rosControlledBubbleRob,-0.96916115284,0.0,0.0,0.0,0.0,-0.0921753644943
1473349278955869923,322,1473349278955624140,/rosControlledBubbleRob,-0.990032076836,0.0,0.0,0.0,0.0,0.681163132191
1473349278993555063,323,1473349278993159624,/rosControlledBubbleRob,-0.944860577583,0.0,0.0,0.0,0.0,0.765580892563
1473349279031238752,324,1473349279030980787,/rosControlledBubbleRob,-0.877605319023,0.0,0.0,0.0,0.0,0.504268467426
1473349279082275427,325,1473349279082019583,/rosControlledBubbleRob,-0.808711707592,0.0,0.0,0.0,0.0,0.290224671364
1473349279132936307,326,1473349279132729740,/rosControlledBubbleRob,-0.73276001215,0.0,0.0,0.0,0.0,0.162228658795
1473349279183276919,327,1473349279183028865,/rosControlledBubbleRob,-0.637653112411,0.0,0.0,0.0,0.0,0.231777131557
1473349279227270581,328,1473349279226992205,/rosControlledBubbleRob,-0.56556558609,0.0,0.0,0.0,0.0,0.279147237539
1473349279268378938,329,1473349279267579370,/rosControlledBubbleRob,-0.488265484571,0.0,0.0,0.0,0.0,0.248429074883
1473349279305283032,330,1473349279305033945,/rosControlledBubbleRob,-0.39878320694,0.0,0.0,0.0,0.0,0.0553890094161
1473349279342002127,331,1473349279341789058,/rosControlledBubbleRob,-0.319093823433,0.0,0.0,0.0,0.0,-0.0560343638062
1473349279383668536,332,1473349279383394148,/rosControlledBubbleRob,-0.251680850983,0.0,0.0,0.0,0.0,-0.090845644474
1473349279419175716,333,1473349279418964528,/rosControlledBubbleRob,-0.199735254049,0.0,0.0,0.0,0.0,-0.0664930418134
1473349279456437922,334,1473349279456182916,/rosControlledBubbleRob,-0.136904031038,0.0,0.0,0.0,0.0,0.0704800114036
1473349279506290137,335,1473349279506094679,/rosControlledBubbleRob,-0.0926423966885,0.0,0.0,0.0,0.0,0.0550441481173
1473349279562608059,336,1473349279562247490,/rosControlledBubbleRob,-0.00945599842817,0.0,0.0,0.0,0.0,-0.303036689758
1473349279615568043,337,1473349279615314223,/rosControlledBubbleRob,0.083415903151,0.0,0.0,0.0,0.0,-0.474113166332
1473349279656627746,338,1473349279656373885,/rosControlledBubbleRob,0.144348070025,0.0,0.0,0.0,0.0,-0.55469918251
1473349279700022592,339,1473349279699845576,/rosControlledBubbleRob,0.212733700871,0.0,0.0,0.0,0.0,-0.630174100399
1473349279736091696,340,1473349279735797861,/rosControlledBubbleRob,0.277770727873,0.0,0.0,0.0,0.0,-0.718164384365
1473349279773196755,341,1473349279772903595,/rosControlledBubbleRob,0.341499507427,0.0,0.0,0.0,0.0,-0.81979393959
1473349279809161708,342,1473349279808974753,/rosControlledBubbleRob,0.398368984461,0.0,0.0,0.0,0.0,-0.943375945091
1473349279845159265,343,1473349279844775223,/rosControlledBubbleRob,0.461237549782,0.0,0.0,0.0,0.0,-0.984246492386
1473349279886594121,344,1473349279886410634,/rosControlledBubbleRob,0.514193058014,0.0,0.0,0.0,0.0,-1.00660979748
1473349279922468676,345,1473349279922256164,/rosControlledBubbleRob,0.585191071033,0.0,0.0,0.0,0.0,-1.17353141308
1473349279963297156,346,1473349279962984550,/rosControlledBubbleRob,0.656421482563,0.0,0.0,0.0,0.0,-1.36617732048
1473349280002545868,347,1473349280002211564,/rosControlledBubbleRob,0.719395577908,0.0,0.0,0.0,0.0,-1.54373407364
1473349280043460286,348,1473349280043189785,/rosControlledBubbleRob,0.778653025627,0.0,0.0,0.0,0.0,-1.67614126205
1473349280083664427,349,1473349280083438970,/rosControlledBubbleRob,0.808770895004,0.0,0.0,0.0,0.0,-1.71866238117
1473349280122791035,350,1473349280122538389,/rosControlledBubbleRob,0.873934686184,0.0,0.0,0.0,0.0,-1.87142074108
1473349280175105848,351,1473349280174932482,/rosControlledBubbleRob,0.888367235661,0.0,0.0,0.0,0.0,-2.31502342224
1473349280232714343,352,1473349280232343051,/rosControlledBubbleRob,0.903916239738,0.0,0.0,0.0,0.0,-1.83250498772
1473349280272017050,353,1473349280271647978,/rosControlledBubbleRob,0.896805465221,0.0,0.0,0.0,0.0,-1.38018035889
1473349280311096646,354,1473349280310872136,/rosControlledBubbleRob,0.907483994961,0.0,0.0,0.0,0.0,-1.73615312576
1473349280346562327,355,1473349280346314498,/rosControlledBubbleRob,0.916120886803,0.0,0.0,0.0,0.0,-2.08014512062
1473349280388342390,356,1473349280387966165,/rosControlledBubbleRob,0.92434489727,0.0,0.0,0.0,0.0,-1.87082505226
1473349280422897714,357,1473349280422678213,/rosControlledBubbleRob,0.96776330471,0.0,0.0,0.0,0.0,-1.45909571648
1473349280462483694,358,1473349280462069881,/rosControlledBubbleRob,0.987157166004,0.0,0.0,0.0,0.0,-1.57449543476
1473349280498461920,359,1473349280498174931,/rosControlledBubbleRob,0.993123531342,0.0,0.0,0.0,0.0,-1.29832458496
1473349280534000609,360,1473349280533537833,/rosControlledBubbleRob,0.983125507832,0.0,0.0,0.0,0.0,-0.914751529694
1473349280569270574,361,1473349280569059173,/rosControlledBubbleRob,0.949207484722,0.0,0.0,0.0,0.0,-0.651965677738
1473349280605281747,362,1473349280605068933,/rosControlledBubbleRob,0.98161393404,0.0,0.0,0.0,0.0,-0.277442872524
1473349280639923037,363,1473349280639635371,/rosControlledBubbleRob,0.933169782162,0.0,0.0,0.0,0.0,-0.505677461624
1473349280678548031,364,1473349280678338680,/rosControlledBubbleRob,0.944304168224,0.0,0.0,0.0,0.0,-0.627546668053
1473349280715747084,365,1473349280715536464,/rosControlledBubbleRob,0.958178400993,0.0,0.0,0.0,0.0,-0.263167053461
1473349280754600117,366,1473349280754391534,/rosControlledBubbleRob,0.946237444878,0.0,0.0,0.0,0.0,-0.841415405273
1473349280791842440,367,1473349280791264940,/rosControlledBubbleRob,0.997550666332,0.0,0.0,0.0,0.0,-0.811087846756
1473349280829320128,368,1473349280828853913,/rosControlledBubbleRob,0.966630280018,0.0,0.0,0.0,0.0,-0.60863929987
1473349280869829349,369,1473349280869624126,/rosControlledBubbleRob,1.00638997555,0.0,0.0,0.0,0.0,-0.545448720455
1473349280907493554,370,1473349280907192582,/rosControlledBubbleRob,1.04334509373,0.0,0.0,0.0,0.0,0.0564378835261
1473349280945269147,371,1473349280944757400,/rosControlledBubbleRob,0.990709781647,0.0,0.0,0.0,0.0,0.236893981695
1473349280983783391,372,1473349280983531284,/rosControlledBubbleRob,1.01732575893,0.0,0.0,0.0,0.0,0.410338908434
1473349281025869172,373,1473349281025561299,/rosControlledBubbleRob,1.043145895,0.0,0.0,0.0,0.0,0.195154339075
1473349281082232039,374,1473349281082035230,/rosControlledBubbleRob,1.04824328423,0.0,0.0,0.0,0.0,-0.529580235481
1473349281134997935,375,1473349281134815545,/rosControlledBubbleRob,1.05194711685,0.0,0.0,0.0,0.0,-0.615364611149
1473349281177262261,376,1473349281176986862,/rosControlledBubbleRob,1.01712620258,0.0,0.0,0.0,0.0,-0.487522989511
1473349281217885653,377,1473349281217694172,/rosControlledBubbleRob,0.947959303856,0.0,0.0,0.0,0.0,-0.508597671986
1473349281269363107,378,1473349281269112177,/rosControlledBubbleRob,0.880724430084,0.0,0.0,0.0,0.0,-0.592110812664
1473349281320786115,379,1473349281320498149,/rosControlledBubbleRob,0.809752941132,0.0,0.0,0.0,0.0,-0.704115152359
1473349281373451300,380,1473349281373158665,/rosControlledBubbleRob,0.742129147053,0.0,0.0,0.0,0.0,-0.852392852306
1473349281423913784,381,1473349281423656845,/rosControlledBubbleRob,0.672518134117,0.0,0.0,0.0,0.0,-1.03017830849
1473349281478358265,382,1473349281477145360,/rosControlledBubbleRob,0.602049589157,0.0,0.0,0.0,0.0,-1.22295129299
1473349281516007985,383,1473349281515509049,/rosControlledBubbleRob,0.525742173195,0.0,0.0,0.0,0.0,-1.43803870678
1473349281552871020,384,1473349281552618456,/rosControlledBubbleRob,0.431638330221,0.0,0.0,0.0,0.0,-1.61279451847
1473349281591670826,385,1473349281591412920,/rosControlledBubbleRob,0.326366066933,0.0,0.0,0.0,0.0,-1.93116736412
1473349281634069014,386,1473349281633610205,/rosControlledBubbleRob,0.280014634132,0.0,0.0,0.0,0.0,-1.87031710148
1473349281671884650,387,1473349281671515074,/rosControlledBubbleRob,0.21243289113,0.0,0.0,0.0,0.0,-1.90658164024
1473349281708160931,388,1473349281707862232,/rosControlledBubbleRob,0.129067569971,0.0,0.0,0.0,0.0,-2.00773215294
1473349281746229339,389,1473349281745641662,/rosControlledBubbleRob,0.0352553911507,0.0,0.0,0.0,0.0,-2.21153020859
1473349281799909414,390,1473349281799565736,/rosControlledBubbleRob,-0.0401556827128,0.0,0.0,0.0,0.0,-2.3768286705
1473349281836979433,391,1473349281836562992,/rosControlledBubbleRob,-0.140004485846,0.0,0.0,0.0,0.0,-2.30851769447
1473349281872953063,392,1473349281872692196,/rosControlledBubbleRob,-0.202809378505,0.0,0.0,0.0,0.0,-2.29575133324
1473349281910234694,393,1473349281910017896,/rosControlledBubbleRob,-0.284240067005,0.0,0.0,0.0,0.0,-2.14695429802
1473349281949084650,394,1473349281948866332,/rosControlledBubbleRob,-0.372752219439,0.0,0.0,0.0,0.0,-2.20107007027
1473349281985825140,395,1473349281985612227,/rosControlledBubbleRob,-0.459385573864,0.0,0.0,0.0,0.0,-2.17347168922
1473349282023964688,396,1473349282023729469,/rosControlledBubbleRob,-0.544870734215,0.0,0.0,0.0,0.0,-2.07372570038
1473349282061447462,397,1473349282061123209,/rosControlledBubbleRob,-0.620633065701,0.0,0.0,0.0,0.0,-1.83944177628
1473349282100124975,398,1473349282099882959,/rosControlledBubbleRob,-0.694329857826,0.0,0.0,0.0,0.0,-1.5963665247
1473349282159895041,399,1473349282159629508,/rosControlledBubbleRob,-0.663301110268,0.0,0.0,0.0,0.0,-1.16020393372
1473349282199110410,400,1473349282198837531,/rosControlledBubbleRob,-0.592725515366,0.0,0.0,0.0,0.0,-0.870968222618
1473349282240100722,401,1473349282239884546,/rosControlledBubbleRob,-0.510642826557,0.0,0.0,0.0,0.0,-0.558629333973
1473349282285639562,402,1473349282285297855,/rosControlledBubbleRob,-0.440725117922,0.0,0.0,0.0,0.0,-0.51585316658
1473349282321236572,403,1473349282321020620,/rosControlledBubbleRob,-0.369613438845,0.0,0.0,0.0,0.0,-0.860873639584
1473349282357398313,404,1473349282356767847,/rosControlledBubbleRob,-0.288525730371,0.0,0.0,0.0,0.0,-0.439133822918
1473349282393790921,405,1473349282393321369,/rosControlledBubbleRob,-0.210090577602,0.0,0.0,0.0,0.0,-0.368481308222
1473349282432587514,406,1473349282432303007,/rosControlledBubbleRob,-0.170300841331,0.0,0.0,0.0,0.0,0.00681294500828
1473349282469028973,407,1473349282468761104,/rosControlledBubbleRob,-0.106955036521,0.0,0.0,0.0,0.0,0.267161041498
1473349282522848923,408,1473349282522533195,/rosControlledBubbleRob,-0.0280795488507,0.0,0.0,0.0,0.0,0.387362957001
1473349282577339455,409,1473349282577070873,/rosControlledBubbleRob,0.00939174275845,0.0,0.0,0.0,0.0,0.348297894001
1473349282631857823,410,1473349282631619327,/rosControlledBubbleRob,-0.0934300720692,0.0,0.0,0.0,0.0,0.210468456149
1473349282675440856,411,1473349282675024750,/rosControlledBubbleRob,-0.150834366679,0.0,0.0,0.0,0.0,0.294261544943
1473349282725707807,412,1473349282725489635,/rosControlledBubbleRob,-0.209317222238,0.0,0.0,0.0,0.0,0.437753409147
1473349282782030530,413,1473349282781834269,/rosControlledBubbleRob,-0.302433103323,0.0,0.0,0.0,0.0,0.235748484731
1473349282835672267,414,1473349282835430581,/rosControlledBubbleRob,-0.375078946352,0.0,0.0,0.0,0.0,0.288852334023
1473349282872240314,415,1473349282872041881,/rosControlledBubbleRob,-0.439706683159,0.0,0.0,0.0,0.0,0.277540564537
1473349282910121217,416,1473349282909752366,/rosControlledBubbleRob,-0.501742839813,0.0,0.0,0.0,0.0,0.270587295294
1473349282946147095,417,1473349282945959487,/rosControlledBubbleRob,-0.564860761166,0.0,0.0,0.0,0.0,0.256955325603
1473349282982695614,418,1473349282982497090,/rosControlledBubbleRob,-0.54139059782,0.0,0.0,0.0,0.0,0.393810659647
1473349283025394079,419,1473349283025221301,/rosControlledBubbleRob,-0.474828839302,0.0,0.0,0.0,0.0,0.310798108578
1473349283068504726,420,1473349283067761048,/rosControlledBubbleRob,-0.38438129425,0.0,0.0,0.0,0.0,-0.0286077708006
1473349283108049448,421,1473349283107788792,/rosControlledBubbleRob,-0.316131085157,0.0,0.0,0.0,0.0,0.096292771399
1473349283150222418,422,1473349283149765208,/rosControlledBubbleRob,-0.234005644917,0.0,0.0,0.0,0.0,0.241398781538
1473349283193826663,423,1473349283193533331,/rosControlledBubbleRob,-0.171062529087,0.0,0.0,0.0,0.0,0.128044575453
1473349283235407517,424,1473349283235033214,/rosControlledBubbleRob,-0.106921061873,0.0,0.0,0.0,0.0,0.098331220448
1473349283279398499,425,1473349283278979297,/rosControlledBubbleRob,-0.0702205747366,0.0,0.0,0.0,0.0,0.588299334049
1473349283315115116,426,1473349283314648310,/rosControlledBubbleRob,-0.002049601404,0.0,0.0,0.0,0.0,0.409400910139
1473349283352647299,427,1473349283352455268,/rosControlledBubbleRob,-0.0203614514321,0.0,0.0,0.0,0.0,0.812325298786
1473349283387712872,428,1473349283387497777,/rosControlledBubbleRob,0.01165348012,0.0,0.0,0.0,0.0,0.278558820486
1473349283430409446,429,1473349283430144178,/rosControlledBubbleRob,-0.0341220460832,0.0,0.0,0.0,0.0,0.278716534376
1473349283469236494,430,1473349283468876413,/rosControlledBubbleRob,-0.0585753619671,0.0,0.0,0.0,0.0,0.256118237972
1473349283508938867,431,1473349283508501686,/rosControlledBubbleRob,-0.0103747546673,0.0,0.0,0.0,0.0,0.194708809257
1473349283553687726,432,1473349283553294595,/rosControlledBubbleRob,0.0371417924762,0.0,0.0,0.0,0.0,0.169778034091
1473349283590788758,433,1473349283590469265,/rosControlledBubbleRob,0.0348457023501,0.0,0.0,0.0,0.0,-0.405221104622
1473349283631563331,434,1473349283631265936,/rosControlledBubbleRob,0.0188393313438,0.0,0.0,0.0,0.0,0.0395892262459
1473349283668464896,435,1473349283668260028,/rosControlledBubbleRob,0.0289892759174,0.0,0.0,0.0,0.0,0.275294840336
1473349283703319576,436,1473349283703161624,/rosControlledBubbleRob,0.0703727900982,0.0,0.0,0.0,0.0,0.268156915903
1473349283742229166,437,1473349283741994341,/rosControlledBubbleRob,0.064852103591,0.0,0.0,0.0,0.0,-0.244524598122
1473349283778126394,438,1473349283777763590,/rosControlledBubbleRob,0.0289094150066,0.0,0.0,0.0,0.0,0.127237871289
1473349283816554511,439,1473349283816313037,/rosControlledBubbleRob,-0.019073529169,0.0,0.0,0.0,0.0,0.147563785315
1473349283851911758,440,1473349283851682948,/rosControlledBubbleRob,-0.0141369793564,0.0,0.0,0.0,0.0,0.0588349141181
1473349283891513567,441,1473349283891165203,/rosControlledBubbleRob,-0.0692350640893,0.0,0.0,0.0,0.0,0.189306765795
1473349283927672339,442,1473349283927387241,/rosControlledBubbleRob,-0.0517322570086,0.0,0.0,0.0,0.0,-0.554010927677
1473349283964929236,443,1473349283964687353,/rosControlledBubbleRob,-0.0611286684871,0.0,0.0,0.0,0.0,-0.181795760989
1473349284001986791,444,1473349284001714960,/rosControlledBubbleRob,-0.0244948659092,0.0,0.0,0.0,0.0,-0.403044462204
1473349284042319495,445,1473349284041990744,/rosControlledBubbleRob,0.00572314998135,0.0,0.0,0.0,0.0,-0.645507276058
1473349284079794560,446,1473349284079145965,/rosControlledBubbleRob,-0.00333776162006,0.0,0.0,0.0,0.0,-0.323207497597
1473349284117581450,447,1473349284117116980,/rosControlledBubbleRob,-0.0302105825394,0.0,0.0,0.0,0.0,-0.574238657951
1473349284152648200,448,1473349284152350095,/rosControlledBubbleRob,-0.0597325339913,0.0,0.0,0.0,0.0,-0.399181038141
1473349284191185161,449,1473349284190817764,/rosControlledBubbleRob,-0.0195352062583,0.0,0.0,0.0,0.0,-0.41028624773
1473349284226748650,450,1473349284226540694,/rosControlledBubbleRob,-0.0374858230352,0.0,0.0,0.0,0.0,0.118143938482
1473349284265387719,451,1473349284265083181,/rosControlledBubbleRob,-0.0803837403655,0.0,0.0,0.0,0.0,0.086154833436
1473349284301646872,452,1473349284301144960,/rosControlledBubbleRob,-0.0551563575864,0.0,0.0,0.0,0.0,-0.0761689022183
1473349284340471944,453,1473349284340150892,/rosControlledBubbleRob,0.00792556349188,0.0,0.0,0.0,0.0,0.135428845882
1473349284396145985,454,1473349284395842846,/rosControlledBubbleRob,-0.00318290037103,0.0,0.0,0.0,0.0,0.197316199541
1473349284452496095,455,1473349284452264662,/rosControlledBubbleRob,0.0343283228576,0.0,0.0,0.0,0.0,0.0699534788728
1473349284495187743,456,1473349284494838894,/rosControlledBubbleRob,-0.000216043437831,0.0,0.0,0.0,0.0,0.0162380430847
1473349284534819705,457,1473349284534371048,/rosControlledBubbleRob,-0.0164447464049,0.0,0.0,0.0,0.0,0.631486356258
1473349284570574413,458,1473349284570276909,/rosControlledBubbleRob,0.00698381615803,0.0,0.0,0.0,0.0,0.565687894821
1473349284604740643,459,1473349284604440011,/rosControlledBubbleRob,-0.00403158785775,0.0,0.0,0.0,0.0,0.788894534111
